[{"id": "knuJk3YRhUgX-7NtGv3hKg", "alias": "brooklyn-pizzeria-richmond", "name": "Brooklyn Pizzeria", "image_url": "https://s3-media2.fl.yelpcdn.com/bphoto/deghxCoMYD3JFGsfDLOfdg/o.jpg", "is_closed": false, "url": "https://www.yelp.com/biz/brooklyn-pizzeria-richmond?adjust_creative=Q1Qdfk781tT6qWPSSx9wKg&utm_campaign=yelp_api_v3&utm_medium=api_v3_business_search&utm_source=Q1Qdfk781tT6qWPSSx9wKg", "review_count": 193, "categories": [{"alias": "pizza", "title": "Pizza"}], "rating": 4.0, "coordinates": {"latitude": 29.6609608699916, "longitude": -95.741569352267}, "transactions": ["delivery"], "price": "$", "location": {"address1": "7930 W Grand Pkwy S", "address2": "", "address3": "", "city": "Richmond", "zip_code": "77406", "country": "US", "state": "TX", "display_address": ["7930 W Grand Pkwy S", "Richmond, TX 77406"]}, "phone": "+12812323333", "display_phone": "(281) 232-3333", "distance": 2290.9085982979054}, {"id": "nZ9FWG7QlbE4bYCTFJs7DQ", "alias": "cup-n-char-richmond", "name": "Cup N Char", "image_url": "https://s3-media3.fl.yelpcdn.com/bphoto/gx1e3dF0RgybsvOGVtLQGw/o.jpg", "is_closed": false, "url": "https://www.yelp.com/biz/cup-n-char-richmond?adjust_creative=Q1Qdfk781tT6qWPSSx9wKg&utm_campaign=yelp_api_v3&utm_medium=api_v3_business_search&utm_source=Q1Qdfk781tT6qWPSSx9wKg", "review_count": 18, "categories": [{"alias": "pizza", "title": "Pizza"}], "rating": 5.0, "coordinates": {"latitude": 29.661013325930316, "longitude": -95.68641677806724}, "transactions": [], "location": {"address1": "10450 Fm 1464", "address2": "Ste 900", "address3": null, "city": "Richmond", "zip_code": "77407", "country": "US", "state": "TX", "display_address": ["10450 Fm 1464", "Ste 900", "Richmond, TX 77407"]}, "phone": "+12819407440", "display_phone": "(281) 940-7440", "distance": 4228.448569209872}, {"id": "RF0xAbGNKkTrIvlJwsLsLA", "alias": "twisted-pizza-and-curries-richmond", "name": "Twisted Pizza & Curries", "image_url": "https://s3-media2.fl.yelpcdn.com/bphoto/XFDE4kuiYgOV4zBXx8fC-Q/o.jpg", "is_closed": false, "url": "https://www.yelp.com/biz/twisted-pizza-and-curries-richmond?adjust_creative=Q1Qdfk781tT6qWPSSx9wKg&utm_campaign=yelp_api_v3&utm_medium=api_v3_business_search&utm_source=Q1Qdfk781tT6qWPSSx9wKg", "review_count": 50, "categories": [{"alias": "pizza", "title": "Pizza"}, {"alias": "indpak", "title": "Indian"}, {"alias": "chicken_wings", "title": "Chicken Wings"}], "rating": 4.5, "coordinates": {"latitude": 29.6542968, "longitude": -95.7143275}, "transactions": ["delivery", "pickup"], "location": {"address1": "11131 Harlem Rd", "address2": "Ste 150", "address3": null, "city": "Richmond", "zip_code": "77406", "country": "US", "state": "TX", "display_address": ["11131 Harlem Rd", "Ste 150", "Richmond, TX 77406"]}, "phone": "+18325000023", "display_phone": "(832) 500-0023", "distance": 2746.648222769303}, {"id": "_WpiWEiXec2HsBaCDemq9Q", "alias": "lomontes-italian-restaurant-and-pizzeria-richmond-3", "name": "Lomonte's Italian Restaurant and Pizzeria", "image_url": "https://s3-media2.fl.yelpcdn.com/bphoto/7MfgN7Hv_l_4NTvWb1b9RA/o.jpg", "is_closed": false, "url": "https://www.yelp.com/biz/lomontes-italian-restaurant-and-pizzeria-richmond-3?adjust_creative=Q1Qdfk781tT6qWPSSx9wKg&utm_campaign=yelp_api_v3&utm_medium=api_v3_business_search&utm_source=Q1Qdfk781tT6qWPSSx9wKg", "review_count": 510, "categories": [{"alias": "pizza", "title": "Pizza"}, {"alias": "italian", "title": "Italian"}, {"alias": "bars", "title": "Bars"}], "rating": 4.5, "coordinates": {"latitude": 29.624106367820428, "longitude": -95.7179264894104}, "transactions": ["delivery", "pickup"], "price": "$$", "location": {"address1": "815 Plantation Dr", "address2": "Ste 180", "address3": "", "city": "Richmond", "zip_code": "77406", "country": "US", "state": "TX", "display_address": ["815 Plantation Dr", "Ste 180", "Richmond, TX 77406"]}, "phone": "+12812328290", "display_phone": "(281) 232-8290", "distance": 5904.5182829570285}, {"id": "Zzn0kEXv88U24HGjvJSxGQ", "alias": "daddyo-s-pizza-katy-katy", "name": "DaddyO\u2019s Pizza - Katy", "image_url": "https://s3-media1.fl.yelpcdn.com/bphoto/Gy9djJT8g1mqJKq_y382tg/o.jpg", "is_closed": false, "url": "https://www.yelp.com/biz/daddyo-s-pizza-katy-katy?adjust_creative=Q1Qdfk781tT6qWPSSx9wKg&utm_campaign=yelp_api_v3&utm_medium=api_v3_business_search&utm_source=Q1Qdfk781tT6qWPSSx9wKg", "review_count": 131, "categories": [{"alias": "pizza", "title": "Pizza"}, {"alias": "italian", "title": "Italian"}], "rating": 4.5, "coordinates": {"latitude": 29.7288749792794, "longitude": -95.7667356133645}, "transactions": ["delivery", "pickup"], "price": "$", "location": {"address1": "6356 S Peek Rd", "address2": "Ste 1100", "address3": "", "city": "Katy", "zip_code": "77450", "country": "US", "state": "TX", "display_address": ["6356 S Peek Rd", "Ste 1100", "Katy, TX 77450"]}, "phone": "+13463770777", "display_phone": "(346) 377-0777", "distance": 4396.15854915001}, {"id": "SEMYGKDD8O0ErJ-E8d_sxw", "alias": "center-court-pizza-and-brew-richmond-3", "name": "Center Court Pizza & Brew", "image_url": "https://s3-media2.fl.yelpcdn.com/bphoto/K6WuMAAHdRWxpVwGohGXRg/o.jpg", "is_closed": false, "url": "https://www.yelp.com/biz/center-court-pizza-and-brew-richmond-3?adjust_creative=Q1Qdfk781tT6qWPSSx9wKg&utm_campaign=yelp_api_v3&utm_medium=api_v3_business_search&utm_source=Q1Qdfk781tT6qWPSSx9wKg", "review_count": 69, "categories": [{"alias": "chicken_wings", "title": "Chicken Wings"}, {"alias": "pizza", "title": "Pizza"}, {"alias": "italian", "title": "Italian"}], "rating": 4.0, "coordinates": {"latitude": 29.651672764769724, "longitude": -95.70396703171046}, "transactions": ["delivery", "pickup"], "price": "$$", "location": {"address1": "18320 W Airport Blvd", "address2": "Ste 500", "address3": null, "city": "Richmond", "zip_code": "77407", "country": "US", "state": "TX", "display_address": ["18320 W Airport Blvd", "Ste 500", "Richmond, TX 77407"]}, "phone": "+17132347120", "display_phone": "(713) 234-7120", "distance": 3521.0508101662376}, {"id": "_UpQsv4jZdL0jv0eyKO93w", "alias": "armani-pizza-and-pasta-katy", "name": "Armani pizza and pasta", "image_url": "https://s3-media1.fl.yelpcdn.com/bphoto/hzfxMSTenAdRO1ggXj9WQw/o.jpg", "is_closed": false, "url": "https://www.yelp.com/biz/armani-pizza-and-pasta-katy?adjust_creative=Q1Qdfk781tT6qWPSSx9wKg&utm_campaign=yelp_api_v3&utm_medium=api_v3_business_search&utm_source=Q1Qdfk781tT6qWPSSx9wKg", "review_count": 2, "categories": [{"alias": "pizza", "title": "Pizza"}, {"alias": "italian", "title": "Italian"}, {"alias": "pastashops", "title": "Pasta Shops"}], "rating": 5.0, "coordinates": {"latitude": 29.703939043898767, "longitude": -95.74362051973424}, "transactions": ["delivery", "pickup"], "location": {"address1": "6868 S Mason Rd Katy Tx 77450", "address2": null, "address3": "", "city": "Katy", "zip_code": "77450", "country": "US", "state": "TX", "display_address": ["6868 S Mason Rd Katy Tx 77450", "Katy, TX 77450"]}, "phone": "+12816764441", "display_phone": "(281) 676-4441", "distance": 3460.3298862875054}, {"id": "7H49Q_dKD5QL_CZivZQV7A", "alias": "marcos-pizza-richmond", "name": "Marco's Pizza", "image_url": "https://s3-media4.fl.yelpcdn.com/bphoto/NX4PSUS5NzUp2hCd--YxYg/o.jpg", "is_closed": false, "url": "https://www.yelp.com/biz/marcos-pizza-richmond?adjust_creative=Q1Qdfk781tT6qWPSSx9wKg&utm_campaign=yelp_api_v3&utm_medium=api_v3_business_search&utm_source=Q1Qdfk781tT6qWPSSx9wKg", "review_count": 63, "categories": [{"alias": "pizza", "title": "Pizza"}], "rating": 3.5, "coordinates": {"latitude": 29.67333293426642, "longitude": -95.75204}, "transactions": ["delivery", "pickup"], "price": "$$", "location": {"address1": "7101 W Grand Pkwy S", "address2": "", "address3": "", "city": "Richmond", "zip_code": "77407", "country": "US", "state": "TX", "display_address": ["7101 W Grand Pkwy S", "Richmond, TX 77407"]}, "phone": "+12812392200", "display_phone": "(281) 239-2200", "distance": 2516.8313560270785}, {"id": "GMtR05cmTIzdFyKEP0KgOQ", "alias": "mod-pizza-richmond", "name": "MOD Pizza", "image_url": "https://s3-media2.fl.yelpcdn.com/bphoto/dyzrmuj5JJCcla7TrU05Cw/o.jpg", "is_closed": false, "url": "https://www.yelp.com/biz/mod-pizza-richmond?adjust_creative=Q1Qdfk781tT6qWPSSx9wKg&utm_campaign=yelp_api_v3&utm_medium=api_v3_business_search&utm_source=Q1Qdfk781tT6qWPSSx9wKg", "review_count": 101, "categories": [{"alias": "hotdogs", "title": "Fast Food"}, {"alias": "pizza", "title": "Pizza"}], "rating": 4.0, "coordinates": {"latitude": 29.659293459343715, "longitude": -95.71159515993678}, "transactions": ["delivery", "pickup"], "price": "$$", "location": {"address1": "10173 W Grand Pkwy S", "address2": "Ste 104", "address3": null, "city": "Richmond", "zip_code": "77407", "country": "US", "state": "TX", "display_address": ["10173 W Grand Pkwy S", "Ste 104", "Richmond, TX 77407"]}, "phone": "+18325585534", "display_phone": "(832) 558-5534", "distance": 2400.6160718144906}, {"id": "LCFDyfgqTcDVLN-Eywdf5g", "alias": "crust-pizza-katy", "name": "Crust Pizza", "image_url": "https://s3-media1.fl.yelpcdn.com/bphoto/zUQKtzBv098aMq8zUiNFyQ/o.jpg", "is_closed": false, "url": "https://www.yelp.com/biz/crust-pizza-katy?adjust_creative=Q1Qdfk781tT6qWPSSx9wKg&utm_campaign=yelp_api_v3&utm_medium=api_v3_business_search&utm_source=Q1Qdfk781tT6qWPSSx9wKg", "review_count": 97, "categories": [{"alias": "pizza", "title": "Pizza"}, {"alias": "italian", "title": "Italian"}, {"alias": "wine_bars", "title": "Wine Bars"}], "rating": 4.0, "coordinates": {"latitude": 29.73666847855678, "longitude": -95.81321589497884}, "transactions": [], "location": {"address1": "9920 Gaston Rd", "address2": "Ste 200", "address3": "", "city": "Katy", "zip_code": "77494", "country": "US", "state": "TX", "display_address": ["9920 Gaston Rd", "Ste 200", "Katy, TX 77494"]}, "phone": "+12817699920", "display_phone": "(281) 769-9920", "distance": 10721.494557744334}, {"id": "5WLNK44aptSAPiuaxNeDOw", "alias": "tastee-pizza-and-wings-houston-2", "name": "Tastee Pizza & Wings", "image_url": "https://s3-media4.fl.yelpcdn.com/bphoto/FoQtLCyORERwWqJng_pf-g/o.jpg", "is_closed": false, "url": "https://www.yelp.com/biz/tastee-pizza-and-wings-houston-2?adjust_creative=Q1Qdfk781tT6qWPSSx9wKg&utm_campaign=yelp_api_v3&utm_medium=api_v3_business_search&utm_source=Q1Qdfk781tT6qWPSSx9wKg", "review_count": 103, "categories": [{"alias": "pizza", "title": "Pizza"}, {"alias": "chicken_wings", "title": "Chicken Wings"}], "rating": 4.0, "coordinates": {"latitude": 29.679131840568857, "longitude": -95.64141691776284}, "transactions": ["pickup"], "price": "$", "location": {"address1": "9203 S Texas 6", "address2": "", "address3": null, "city": "Houston", "zip_code": "77083", "country": "US", "state": "TX", "display_address": ["9203 S Texas 6", "Houston, TX 77083"]}, "phone": "+12815308222", "display_phone": "(281) 530-8222", "distance": 8202.945685216804}, {"id": "jeIk2IP_k-9hNKrWJruv0g", "alias": "russos-new-york-pizzeria-and-italian-kitchen-richmond", "name": "Russo's New York Pizzeria and Italian Kitchen", "image_url": "https://s3-media3.fl.yelpcdn.com/bphoto/cbM-Afz6FHaBZ2C_ZjTSfQ/o.jpg", "is_closed": false, "url": "https://www.yelp.com/biz/russos-new-york-pizzeria-and-italian-kitchen-richmond?adjust_creative=Q1Qdfk781tT6qWPSSx9wKg&utm_campaign=yelp_api_v3&utm_medium=api_v3_business_search&utm_source=Q1Qdfk781tT6qWPSSx9wKg", "review_count": 193, "categories": [{"alias": "pizza", "title": "Pizza"}, {"alias": "italian", "title": "Italian"}, {"alias": "pastashops", "title": "Pasta Shops"}], "rating": 3.5, "coordinates": {"latitude": 29.6930221, "longitude": -95.7729849}, "transactions": ["delivery", "pickup"], "price": "$$", "location": {"address1": "5530 West Grand Pkwy S", "address2": "Ste 200", "address3": null, "city": "Richmond", "zip_code": "77406", "country": "US", "state": "TX", "display_address": ["5530 West Grand Pkwy S", "Ste 200", "Richmond, TX 77406"]}, "phone": "+12812396336", "display_phone": "(281) 239-6336", "distance": 4862.773035757159}, {"id": "yRA7FKgAPICJG2vHR0K_XA", "alias": "grimaldis-pizzeria-katy-5", "name": "Grimaldi's Pizzeria", "image_url": "https://s3-media3.fl.yelpcdn.com/bphoto/qPZwipakwJ50XmzotIFtew/o.jpg", "is_closed": false, "url": "https://www.yelp.com/biz/grimaldis-pizzeria-katy-5?adjust_creative=Q1Qdfk781tT6qWPSSx9wKg&utm_campaign=yelp_api_v3&utm_medium=api_v3_business_search&utm_source=Q1Qdfk781tT6qWPSSx9wKg", "review_count": 547, "categories": [{"alias": "pizza", "title": "Pizza"}, {"alias": "desserts", "title": "Desserts"}, {"alias": "beer_and_wine", "title": "Beer, Wine & Spirits"}], "rating": 3.0, "coordinates": {"latitude": 29.74075803, "longitude": -95.77533895}, "transactions": ["delivery", "pickup"], "price": "$$", "location": {"address1": "2643 Commercial Center Blvd", "address2": "C390", "address3": "", "city": "Katy", "zip_code": "77494", "country": "US", "state": "TX", "display_address": ["2643 Commercial Center Blvd", "C390", "Katy, TX 77494"]}, "phone": "+12815740070", "display_phone": "(281) 574-0070", "distance": 8554.044696174606}, {"id": "QOtGbhaVRsTA3jT_UGxC8Q", "alias": "the-local-bar-katy", "name": "The Local Bar", "image_url": "https://s3-media4.fl.yelpcdn.com/bphoto/gIQgXX_0GMdrgtzrnXVf_Q/o.jpg", "is_closed": false, "url": "https://www.yelp.com/biz/the-local-bar-katy?adjust_creative=Q1Qdfk781tT6qWPSSx9wKg&utm_campaign=yelp_api_v3&utm_medium=api_v3_business_search&utm_source=Q1Qdfk781tT6qWPSSx9wKg", "review_count": 119, "categories": [{"alias": "gastropubs", "title": "Gastropubs"}, {"alias": "cocktailbars", "title": "Cocktail Bars"}], "rating": 4.5, "coordinates": {"latitude": 29.73989434524977, "longitude": -95.78007064742276}, "transactions": ["delivery", "pickup"], "price": "$$", "location": {"address1": "24033 Cinco Ranch Blvd", "address2": null, "address3": null, "city": "Katy", "zip_code": "77494", "country": "US", "state": "TX", "display_address": ["24033 Cinco Ranch Blvd", "Katy, TX 77494"]}, "phone": "+18329133941", "display_phone": "(832) 913-3941", "distance": 8737.986913399393}, {"id": "IvuVwVDyhn5aqYTM2aMHSw", "alias": "pizza-novo-katy-3", "name": "Pizza Novo", "image_url": "https://s3-media1.fl.yelpcdn.com/bphoto/p0HIxHnb8zs91ITkqJsK3g/o.jpg", "is_closed": false, "url": "https://www.yelp.com/biz/pizza-novo-katy-3?adjust_creative=Q1Qdfk781tT6qWPSSx9wKg&utm_campaign=yelp_api_v3&utm_medium=api_v3_business_search&utm_source=Q1Qdfk781tT6qWPSSx9wKg", "review_count": 8, "categories": [{"alias": "pizza", "title": "Pizza"}, {"alias": "chicken_wings", "title": "Chicken Wings"}, {"alias": "sandwiches", "title": "Sandwiches"}], "rating": 3.5, "coordinates": {"latitude": 29.7141, "longitude": -95.77469}, "transactions": ["delivery", "pickup"], "location": {"address1": "6711 S Fry Rd", "address2": "", "address3": null, "city": "Katy", "zip_code": "77494", "country": "US", "state": "TX", "display_address": ["6711 S Fry Rd", "Katy, TX 77494"]}, "phone": "+12813956400", "display_phone": "(281) 395-6400", "distance": 6286.830675694112}, {"id": "lYUe51kC74k-GCojxZclng", "alias": "rosatis-richmond", "name": "Rosati's", "image_url": "https://s3-media4.fl.yelpcdn.com/bphoto/fXaYB3NPi70wqojy92OSfQ/o.jpg", "is_closed": false, "url": "https://www.yelp.com/biz/rosatis-richmond?adjust_creative=Q1Qdfk781tT6qWPSSx9wKg&utm_campaign=yelp_api_v3&utm_medium=api_v3_business_search&utm_source=Q1Qdfk781tT6qWPSSx9wKg", "review_count": 212, "categories": [{"alias": "pizza", "title": "Pizza"}], "rating": 3.5, "coordinates": {"latitude": 29.69375640700149, "longitude": -95.81374368447084}, "transactions": ["delivery", "pickup"], "price": "$$", "location": {"address1": "9111 Farm To Market Rd 723", "address2": "Ste 250", "address3": "", "city": "Richmond", "zip_code": "77406", "country": "US", "state": "TX", "display_address": ["9111 Farm To Market Rd 723", "Ste 250", "Richmond, TX 77406"]}, "phone": "+12812397924", "display_phone": "(281) 239-7924", "distance": 8659.14683548377}, {"id": "ZcdN8D9fE-iLAyq766R_Zw", "alias": "hungry-howies-pizza-katy-5", "name": "Hungry Howie's Pizza", "image_url": "https://s3-media3.fl.yelpcdn.com/bphoto/h1lKEEFTqjd2nnh3FnDsZw/o.jpg", "is_closed": false, "url": "https://www.yelp.com/biz/hungry-howies-pizza-katy-5?adjust_creative=Q1Qdfk781tT6qWPSSx9wKg&utm_campaign=yelp_api_v3&utm_medium=api_v3_business_search&utm_source=Q1Qdfk781tT6qWPSSx9wKg", "review_count": 2, "categories": [{"alias": "pizza", "title": "Pizza"}], "rating": 4.0, "coordinates": {"latitude": 29.699411, "longitude": -95.793767}, "transactions": [], "location": {"address1": "6940 Katy-Gaston Rd", "address2": "Ste 100", "address3": null, "city": "Katy", "zip_code": "77494", "country": "US", "state": "TX", "display_address": ["6940 Katy-Gaston Rd", "Ste 100", "Katy, TX 77494"]}, "phone": "+13462570557", "display_phone": "(346) 257-0557", "distance": 6992.203853195664}, {"id": "6dbPSVEinF-qoaTZsoCuUw", "alias": "big-zs-pizza-house-and-brew-katy", "name": "BIG Z's Pizza House & Brew", "image_url": "https://s3-media3.fl.yelpcdn.com/bphoto/rn1EuWNaxstOMG17eSlUJw/o.jpg", "is_closed": false, "url": "https://www.yelp.com/biz/big-zs-pizza-house-and-brew-katy?adjust_creative=Q1Qdfk781tT6qWPSSx9wKg&utm_campaign=yelp_api_v3&utm_medium=api_v3_business_search&utm_source=Q1Qdfk781tT6qWPSSx9wKg", "review_count": 164, "categories": [{"alias": "pizza", "title": "Pizza"}, {"alias": "sportsbars", "title": "Sports Bars"}, {"alias": "chicken_wings", "title": "Chicken Wings"}], "rating": 4.0, "coordinates": {"latitude": 29.75001849494604, "longitude": -95.75272745531488}, "transactions": ["delivery", "pickup"], "price": "$$", "location": {"address1": "2004 S Mason Rd", "address2": "A1", "address3": null, "city": "Katy", "zip_code": "77450", "country": "US", "state": "TX", "display_address": ["2004 S Mason Rd", "A1", "Katy, TX 77450"]}, "phone": "+12815741788", "display_phone": "(281) 574-1788", "distance": 8542.469651431928}, {"id": "mBybBBRnJRM42AS1iJSacg", "alias": "star-pizza-katy", "name": "Star Pizza", "image_url": "https://s3-media2.fl.yelpcdn.com/bphoto/gnNQhKbImDvzIZT0cHGfqA/o.jpg", "is_closed": false, "url": "https://www.yelp.com/biz/star-pizza-katy?adjust_creative=Q1Qdfk781tT6qWPSSx9wKg&utm_campaign=yelp_api_v3&utm_medium=api_v3_business_search&utm_source=Q1Qdfk781tT6qWPSSx9wKg", "review_count": 143, "categories": [{"alias": "pizza", "title": "Pizza"}], "rating": 4.0, "coordinates": {"latitude": 29.73931, "longitude": -95.78279}, "transactions": [], "price": "$$", "location": {"address1": "24210 Westheimer Pkwy", "address2": "Ste 100", "address3": "", "city": "Katy", "zip_code": "77494", "country": "US", "state": "TX", "display_address": ["24210 Westheimer Pkwy", "Ste 100", "Katy, TX 77494"]}, "phone": "+12816657768", "display_phone": "(281) 665-7768", "distance": 8863.499582056511}, {"id": "1fdTLd9zBU1VL6ikgbas0A", "alias": "papa-johns-pizza-richmond-22", "name": "Papa Johns Pizza", "image_url": "https://s3-media2.fl.yelpcdn.com/bphoto/gK8lna4PJArBm3CF3o85tA/o.jpg", "is_closed": false, "url": "https://www.yelp.com/biz/papa-johns-pizza-richmond-22?adjust_creative=Q1Qdfk781tT6qWPSSx9wKg&utm_campaign=yelp_api_v3&utm_medium=api_v3_business_search&utm_source=Q1Qdfk781tT6qWPSSx9wKg", "review_count": 22, "categories": [{"alias": "pizza", "title": "Pizza"}, {"alias": "chicken_wings", "title": "Chicken Wings"}, {"alias": "hotdogs", "title": "Fast Food"}], "rating": 2.5, "coordinates": {"latitude": 29.663949, "longitude": -95.745548}, "transactions": ["delivery", "pickup"], "price": "$", "location": {"address1": "7770 W Grand Pkwy S", "address2": "Ste C", "address3": "", "city": "Richmond", "zip_code": "77406", "country": "US", "state": "TX", "display_address": ["7770 W Grand Pkwy S", "Ste C", "Richmond, TX 77406"]}, "phone": "+18324716112", "display_phone": "(832) 471-6112", "distance": 2333.3379501118}, {"id": "jROLCQjN0jRjtKtZnR9yoQ", "alias": "pane-e-vino-ristorante-italiano-richmond", "name": "Pane e Vino Ristorante Italiano", "image_url": "https://s3-media4.fl.yelpcdn.com/bphoto/yU3YPJuamXMRLDaMmumMsg/o.jpg", "is_closed": false, "url": "https://www.yelp.com/biz/pane-e-vino-ristorante-italiano-richmond?adjust_creative=Q1Qdfk781tT6qWPSSx9wKg&utm_campaign=yelp_api_v3&utm_medium=api_v3_business_search&utm_source=Q1Qdfk781tT6qWPSSx9wKg", "review_count": 284, "categories": [{"alias": "italian", "title": "Italian"}, {"alias": "pizza", "title": "Pizza"}, {"alias": "wine_bars", "title": "Wine Bars"}], "rating": 4.0, "coordinates": {"latitude": 29.698313237765273, "longitude": -95.79080624461768}, "transactions": ["pickup", "delivery"], "price": "$$", "location": {"address1": "7109 Katy - Gaston Rd", "address2": "Ste 1000", "address3": "", "city": "Richmond", "zip_code": "77406", "country": "US", "state": "TX", "display_address": ["7109 Katy - Gaston Rd", "Ste 1000", "Richmond, TX 77406"]}, "phone": "+12813912222", "display_phone": "(281) 391-2222", "distance": 6680.095302887552}, {"id": "cakQt3aj1Eehery2zvGkFg", "alias": "shamsis-simply-greek-richmond", "name": "Shamsi's Simply Greek", "image_url": "https://s3-media4.fl.yelpcdn.com/bphoto/DIAq8P5yj6R9DEwRpYuqaQ/o.jpg", "is_closed": false, "url": "https://www.yelp.com/biz/shamsis-simply-greek-richmond?adjust_creative=Q1Qdfk781tT6qWPSSx9wKg&utm_campaign=yelp_api_v3&utm_medium=api_v3_business_search&utm_source=Q1Qdfk781tT6qWPSSx9wKg", "review_count": 10, "categories": [{"alias": "hotdogs", "title": "Fast Food"}, {"alias": "greek", "title": "Greek"}, {"alias": "pizza", "title": "Pizza"}], "rating": 3.0, "coordinates": {"latitude": 29.68548, "longitude": -95.71593}, "transactions": ["pickup", "delivery"], "location": {"address1": "8620 Grand Mission Blvd", "address2": "", "address3": "", "city": "Richmond", "zip_code": "77407", "country": "US", "state": "TX", "display_address": ["8620 Grand Mission Blvd", "Richmond, TX 77407"]}, "phone": "+13462392555", "display_phone": "(346) 239-2555", "distance": 1295.6817583785623}, {"id": "YZInkU8Y9l1zNn4PfFhFmw", "alias": "blaze-pizza-sugar-land", "name": "Blaze Pizza", "image_url": "https://s3-media1.fl.yelpcdn.com/bphoto/51vNIb-kHP4mpmjf0n7PFQ/o.jpg", "is_closed": false, "url": "https://www.yelp.com/biz/blaze-pizza-sugar-land?adjust_creative=Q1Qdfk781tT6qWPSSx9wKg&utm_campaign=yelp_api_v3&utm_medium=api_v3_business_search&utm_source=Q1Qdfk781tT6qWPSSx9wKg", "review_count": 424, "categories": [{"alias": "pizza", "title": "Pizza"}, {"alias": "salad", "title": "Salad"}, {"alias": "hotdogs", "title": "Fast Food"}], "rating": 4.0, "coordinates": {"latitude": 29.5990205, "longitude": -95.627188}, "transactions": ["pickup", "delivery"], "price": "$", "location": {"address1": "16100 Kensington Dr", "address2": "Ste 500", "address3": "", "city": "Sugar Land", "zip_code": "77479", "country": "US", "state": "TX", "display_address": ["16100 Kensington Dr", "Ste 500", "Sugar Land, TX 77479"]}, "phone": "+12815029002", "display_phone": "(281) 502-9002", "distance": 12897.35513212676}, {"id": "woQvqYV88QMtBwm8nPZWyg", "alias": "marcos-pizza-richmond-3", "name": "Marco's Pizza", "image_url": "https://s3-media4.fl.yelpcdn.com/bphoto/qKedW4yD5msdzM51BU4NCQ/o.jpg", "is_closed": false, "url": "https://www.yelp.com/biz/marcos-pizza-richmond-3?adjust_creative=Q1Qdfk781tT6qWPSSx9wKg&utm_campaign=yelp_api_v3&utm_medium=api_v3_business_search&utm_source=Q1Qdfk781tT6qWPSSx9wKg", "review_count": 30, "categories": [{"alias": "pizza", "title": "Pizza"}, {"alias": "italian", "title": "Italian"}], "rating": 2.5, "coordinates": {"latitude": 29.69973, "longitude": -95.68721}, "transactions": ["pickup", "delivery"], "price": "$", "location": {"address1": "7119 Fm 1464", "address2": "Ste 310", "address3": null, "city": "Richmond", "zip_code": "77407", "country": "US", "state": "TX", "display_address": ["7119 Fm 1464", "Ste 310", "Richmond, TX 77407"]}, "phone": "+18329446864", "display_phone": "(832) 944-6864", "distance": 4560.377396477789}, {"id": "ix9Z6ayyHxyPqUGsBktdOg", "alias": "pizza-hut-sugar-land-9", "name": "Pizza Hut", "image_url": "https://s3-media2.fl.yelpcdn.com/bphoto/_ECyvYSKsm89cLXWMj_bCA/o.jpg", "is_closed": false, "url": "https://www.yelp.com/biz/pizza-hut-sugar-land-9?adjust_creative=Q1Qdfk781tT6qWPSSx9wKg&utm_campaign=yelp_api_v3&utm_medium=api_v3_business_search&utm_source=Q1Qdfk781tT6qWPSSx9wKg", "review_count": 51, "categories": [{"alias": "pizza", "title": "Pizza"}, {"alias": "chicken_wings", "title": "Chicken Wings"}, {"alias": "hotdogs", "title": "Fast Food"}], "rating": 2.5, "coordinates": {"latitude": 29.648332, "longitude": -95.6777}, "transactions": ["delivery"], "price": "$", "location": {"address1": "16635 W Airport Blvd", "address2": "", "address3": "", "city": "Sugar Land", "zip_code": "77498", "country": "US", "state": "TX", "display_address": ["16635 W Airport Blvd", "Sugar Land, TX 77498"]}, "phone": "+12813130170", "display_phone": "(281) 313-0170", "distance": 5654.986420693656}, {"id": "xk3Wl5naejtAqA-UhGpFvA", "alias": "on-the-kirb-katy", "name": "On The Kirb", "image_url": "https://s3-media3.fl.yelpcdn.com/bphoto/MYc_tImWgtWuOlXgymvGyw/o.jpg", "is_closed": false, "url": "https://www.yelp.com/biz/on-the-kirb-katy?adjust_creative=Q1Qdfk781tT6qWPSSx9wKg&utm_campaign=yelp_api_v3&utm_medium=api_v3_business_search&utm_source=Q1Qdfk781tT6qWPSSx9wKg", "review_count": 164, "categories": [{"alias": "gastropubs", "title": "Gastropubs"}, {"alias": "sportsbars", "title": "Sports Bars"}], "rating": 4.5, "coordinates": {"latitude": 29.78351, "longitude": -95.60137}, "transactions": ["pickup", "delivery"], "price": "$$", "location": {"address1": "25230 Farm To Market 1093", "address2": "Ste B", "address3": "", "city": "Katy", "zip_code": "77494", "country": "US", "state": "TX", "display_address": ["25230 Farm To Market 1093", "Ste B", "Katy, TX 77494"]}, "phone": "+12815959764", "display_phone": "(281) 595-9764", "distance": 8889.33063879858}, {"id": "5j0ffYlZnfSMB0qWvU3eLg", "alias": "dominos-pizza-richmond", "name": "Domino's Pizza", "image_url": "https://s3-media2.fl.yelpcdn.com/bphoto/Vh5QQNqbGhuE5_D71wYA-A/o.jpg", "is_closed": false, "url": "https://www.yelp.com/biz/dominos-pizza-richmond?adjust_creative=Q1Qdfk781tT6qWPSSx9wKg&utm_campaign=yelp_api_v3&utm_medium=api_v3_business_search&utm_source=Q1Qdfk781tT6qWPSSx9wKg", "review_count": 23, "categories": [{"alias": "pizza", "title": "Pizza"}, {"alias": "chicken_wings", "title": "Chicken Wings"}, {"alias": "sandwiches", "title": "Sandwiches"}], "rating": 3.5, "coordinates": {"latitude": 29.620943, "longitude": -95.742435}, "transactions": [], "price": "$", "location": {"address1": "1858 FM 359 Rd", "address2": "", "address3": "", "city": "Richmond", "zip_code": "77406", "country": "US", "state": "TX", "display_address": ["1858 FM 359 Rd", "Richmond, TX 77406"]}, "phone": "+12813428860", "display_phone": "(281) 342-8860", "distance": 6394.324075107014}, {"id": "H_XdRWuJv6fvKXYNRaG5hQ", "alias": "piada-italian-street-food-sugar-land-2", "name": "Piada Italian Street Food", "image_url": "https://s3-media1.fl.yelpcdn.com/bphoto/eapcfvM7lCtw4yOZYip51g/o.jpg", "is_closed": false, "url": "https://www.yelp.com/biz/piada-italian-street-food-sugar-land-2?adjust_creative=Q1Qdfk781tT6qWPSSx9wKg&utm_campaign=yelp_api_v3&utm_medium=api_v3_business_search&utm_source=Q1Qdfk781tT6qWPSSx9wKg", "review_count": 444, "categories": [{"alias": "italian", "title": "Italian"}, {"alias": "salad", "title": "Salad"}, {"alias": "wraps", "title": "Wraps"}], "rating": 4.0, "coordinates": {"latitude": 29.59848173, "longitude": -95.62450659}, "transactions": ["delivery"], "price": "$", "location": {"address1": "1930 Highway 6", "address2": null, "address3": "", "city": "Sugar Land", "zip_code": "77478", "country": "US", "state": "TX", "display_address": ["1930 Highway 6", "Sugar Land, TX 77478"]}, "phone": "+12814910603", "display_phone": "(281) 491-0603", "distance": 13130.56794684597}, {"id": "I1OZsjHoWNsQN8scm81NFQ", "alias": "mod-pizza-katy", "name": "MOD Pizza", "image_url": "https://s3-media2.fl.yelpcdn.com/bphoto/uRVkt_vSHXqNutuMz1SU0A/o.jpg", "is_closed": false, "url": "https://www.yelp.com/biz/mod-pizza-katy?adjust_creative=Q1Qdfk781tT6qWPSSx9wKg&utm_campaign=yelp_api_v3&utm_medium=api_v3_business_search&utm_source=Q1Qdfk781tT6qWPSSx9wKg", "review_count": 211, "categories": [{"alias": "pizza", "title": "Pizza"}, {"alias": "hotdogs", "title": "Fast Food"}], "rating": 4.0, "coordinates": {"latitude": 29.7147655487061, "longitude": -95.776969909668}, "transactions": ["pickup", "delivery"], "price": "$$", "location": {"address1": "6825 S Fry Rd", "address2": "Ste 1100", "address3": "", "city": "Katy", "zip_code": "77494", "country": "US", "state": "TX", "display_address": ["6825 S Fry Rd", "Ste 1100", "Katy, TX 77494"]}, "phone": "+18324375524", "display_phone": "(832) 437-5524", "distance": 6486.548437924288}, {"id": "sV3TCQ1kQcRpcNVZHo5W-Q", "alias": "center-court-pizza-and-brew-katy", "name": "Center Court Pizza & Brew", "image_url": "https://s3-media3.fl.yelpcdn.com/bphoto/axccdFEJhwtCCHRc5VPsDQ/o.jpg", "is_closed": false, "url": "https://www.yelp.com/biz/center-court-pizza-and-brew-katy?adjust_creative=Q1Qdfk781tT6qWPSSx9wKg&utm_campaign=yelp_api_v3&utm_medium=api_v3_business_search&utm_source=Q1Qdfk781tT6qWPSSx9wKg", "review_count": 143, "categories": [{"alias": "pizza", "title": "Pizza"}, {"alias": "sportsbars", "title": "Sports Bars"}], "rating": 3.5, "coordinates": {"latitude": 29.700672, "longitude": -95.813187}, "transactions": ["pickup", "delivery"], "price": "$$", "location": {"address1": "9550 Spring Green Blvd", "address2": "Ste 400", "address3": "", "city": "Katy", "zip_code": "77494", "country": "US", "state": "TX", "display_address": ["9550 Spring Green Blvd", "Ste 400", "Katy, TX 77494"]}, "phone": "+12816653997", "display_phone": "(281) 665-3997", "distance": 8791.051960407693}, {"id": "htmZZsNrnq23xq5KOUWHbg", "alias": "texas-pizza-houston-5", "name": "Texas Pizza", "image_url": "https://s3-media3.fl.yelpcdn.com/bphoto/3CvIELZ5Hurx8isz35dZhw/o.jpg", "is_closed": false, "url": "https://www.yelp.com/biz/texas-pizza-houston-5?adjust_creative=Q1Qdfk781tT6qWPSSx9wKg&utm_campaign=yelp_api_v3&utm_medium=api_v3_business_search&utm_source=Q1Qdfk781tT6qWPSSx9wKg", "review_count": 42, "categories": [{"alias": "pizza", "title": "Pizza"}], "rating": 3.0, "coordinates": {"latitude": 29.70115, "longitude": -95.664638}, "transactions": ["pickup", "delivery"], "price": "$$", "location": {"address1": "7030 Addicks Clodine Rd", "address2": "", "address3": "", "city": "Houston", "zip_code": "77083", "country": "US", "state": "TX", "display_address": ["7030 Addicks Clodine Rd", "Houston, TX 77083"]}, "phone": "+12818798484", "display_phone": "(281) 879-8484", "distance": 6545.865038487593}, {"id": "T7i6BaAV7r75dWBB-BOiug", "alias": "fusion-grill-katy", "name": "Fusion Grill", "image_url": "https://s3-media4.fl.yelpcdn.com/bphoto/EuBoJehky9ZOmaoLIgbYiw/o.jpg", "is_closed": false, "url": "https://www.yelp.com/biz/fusion-grill-katy?adjust_creative=Q1Qdfk781tT6qWPSSx9wKg&utm_campaign=yelp_api_v3&utm_medium=api_v3_business_search&utm_source=Q1Qdfk781tT6qWPSSx9wKg", "review_count": 199, "categories": [{"alias": "burgers", "title": "Burgers"}, {"alias": "tacos", "title": "Tacos"}, {"alias": "sandwiches", "title": "Sandwiches"}], "rating": 4.5, "coordinates": {"latitude": 29.761239, "longitude": -95.750945}, "transactions": ["pickup"], "price": "$$", "location": {"address1": "1453 S Mason Rd", "address2": null, "address3": "", "city": "Katy", "zip_code": "77450", "country": "US", "state": "TX", "display_address": ["1453 S Mason Rd", "Katy, TX 77450"]}, "phone": "+12817178935", "display_phone": "(281) 717-8935", "distance": 9696.455184986118}, {"id": "FYXdUYt1gNs3tGPIiBfwOw", "alias": "messina-hof-harvest-green-winery-and-kitchen-richmond-4", "name": "Messina Hof Harvest Green Winery & Kitchen", "image_url": "https://s3-media2.fl.yelpcdn.com/bphoto/GmrOW10irjoXkcCvMN-UJg/o.jpg", "is_closed": false, "url": "https://www.yelp.com/biz/messina-hof-harvest-green-winery-and-kitchen-richmond-4?adjust_creative=Q1Qdfk781tT6qWPSSx9wKg&utm_campaign=yelp_api_v3&utm_medium=api_v3_business_search&utm_source=Q1Qdfk781tT6qWPSSx9wKg", "review_count": 171, "categories": [{"alias": "wine_bars", "title": "Wine Bars"}, {"alias": "newamerican", "title": "American (New)"}, {"alias": "wineries", "title": "Wineries"}], "rating": 4.0, "coordinates": {"latitude": 29.6514963, "longitude": -95.7144907}, "transactions": [], "price": "$$", "location": {"address1": "8921 Harlem Rd", "address2": null, "address3": "", "city": "Richmond", "zip_code": "77406", "country": "US", "state": "TX", "display_address": ["8921 Harlem Rd", "Richmond, TX 77406"]}, "phone": "+13462929463", "display_phone": "(346) 292-9463", "distance": 3698.5446830280766}, {"id": "KYCbhs7g3wZWrreT-rr3PQ", "alias": "milo-pizza-and-pasta-houston", "name": "Milo pizza and pasta", "image_url": "https://s3-media4.fl.yelpcdn.com/bphoto/sNUHhotQzICubVxQObvihA/o.jpg", "is_closed": false, "url": "https://www.yelp.com/biz/milo-pizza-and-pasta-houston?adjust_creative=Q1Qdfk781tT6qWPSSx9wKg&utm_campaign=yelp_api_v3&utm_medium=api_v3_business_search&utm_source=Q1Qdfk781tT6qWPSSx9wKg", "review_count": 1, "categories": [{"alias": "pizza", "title": "Pizza"}, {"alias": "pastashops", "title": "Pasta Shops"}, {"alias": "fooddeliveryservices", "title": "Food Delivery Services"}], "rating": 5.0, "coordinates": {"latitude": 29.68863579755697, "longitude": -95.6472123}, "transactions": ["pickup", "delivery"], "location": {"address1": "14635 Beechnut St", "address2": "Ste B", "address3": "", "city": "Houston", "zip_code": "77083", "country": "US", "state": "TX", "display_address": ["14635 Beechnut St", "Ste B", "Houston, TX 77083"]}, "phone": "+12815296252", "display_phone": "(281) 529-6252", "distance": 7752.561013924399}, {"id": "36O2vgrkh8LW-MRi7q1GVg", "alias": "pepperonis-pecan-grove-richmond", "name": "Pepperoni's - Pecan Grove", "image_url": "https://s3-media3.fl.yelpcdn.com/bphoto/vLVpXiC2wd7qunp1_xa-QQ/o.jpg", "is_closed": false, "url": "https://www.yelp.com/biz/pepperonis-pecan-grove-richmond?adjust_creative=Q1Qdfk781tT6qWPSSx9wKg&utm_campaign=yelp_api_v3&utm_medium=api_v3_business_search&utm_source=Q1Qdfk781tT6qWPSSx9wKg", "review_count": 61, "categories": [{"alias": "pizza", "title": "Pizza"}], "rating": 3.0, "coordinates": {"latitude": 29.6147719, "longitude": -95.7432296}, "transactions": ["pickup", "delivery"], "price": "$", "location": {"address1": "1800 FM359", "address2": "Ste 160", "address3": null, "city": "Richmond", "zip_code": "77469", "country": "US", "state": "TX", "display_address": ["1800 FM359", "Ste 160", "Richmond, TX 77469"]}, "phone": "+12812396565", "display_phone": "(281) 239-6565", "distance": 7079.123875962975}, {"id": "k8wZ3wCkCRJmVoPVL80CMQ", "alias": "lasagna-house-iii-houston-2", "name": "Lasagna House III", "image_url": "https://s3-media1.fl.yelpcdn.com/bphoto/X444MTUg2JTohPXUEkljlg/o.jpg", "is_closed": false, "url": "https://www.yelp.com/biz/lasagna-house-iii-houston-2?adjust_creative=Q1Qdfk781tT6qWPSSx9wKg&utm_campaign=yelp_api_v3&utm_medium=api_v3_business_search&utm_source=Q1Qdfk781tT6qWPSSx9wKg", "review_count": 282, "categories": [{"alias": "italian", "title": "Italian"}], "rating": 4.0, "coordinates": {"latitude": 29.7371678493099, "longitude": -95.6246788436554}, "transactions": ["delivery"], "price": "$$", "location": {"address1": "13306 Westheimer Rd", "address2": "", "address3": "", "city": "Houston", "zip_code": "77077", "country": "US", "state": "TX", "display_address": ["13306 Westheimer Rd", "Houston, TX 77077"]}, "phone": "+12814969114", "display_phone": "(281) 496-9114", "distance": 11894.757567314542}, {"id": "4oqfuThHySxHIRZT_Fxi0g", "alias": "roman-delight-pizza-houston-4", "name": "Roman Delight Pizza", "image_url": "https://s3-media3.fl.yelpcdn.com/bphoto/gqffRLU36gSMEBI-0oIorg/o.jpg", "is_closed": false, "url": "https://www.yelp.com/biz/roman-delight-pizza-houston-4?adjust_creative=Q1Qdfk781tT6qWPSSx9wKg&utm_campaign=yelp_api_v3&utm_medium=api_v3_business_search&utm_source=Q1Qdfk781tT6qWPSSx9wKg", "review_count": 1, "categories": [{"alias": "pizza", "title": "Pizza"}], "rating": 4.0, "coordinates": {"latitude": 29.73209, "longitude": -95.648794}, "transactions": [], "location": {"address1": "2600 Hwy 6 S", "address2": null, "address3": null, "city": "Houston", "zip_code": "77082", "country": "US", "state": "TX", "display_address": ["2600 Hwy 6 S", "Houston, TX 77082"]}, "phone": "+12814976111", "display_phone": "(281) 497-6111", "distance": 9691.793144310814}, {"id": "HUhG19qflghEBuoMvWxWZw", "alias": "pepperonis-cinco-ranch-katy", "name": "Pepperoni's - Cinco Ranch", "image_url": "https://s3-media4.fl.yelpcdn.com/bphoto/nVqDWEy-Onh8FjpueTfpkw/o.jpg", "is_closed": false, "url": "https://www.yelp.com/biz/pepperonis-cinco-ranch-katy?adjust_creative=Q1Qdfk781tT6qWPSSx9wKg&utm_campaign=yelp_api_v3&utm_medium=api_v3_business_search&utm_source=Q1Qdfk781tT6qWPSSx9wKg", "review_count": 89, "categories": [{"alias": "pizza", "title": "Pizza"}], "rating": 3.5, "coordinates": {"latitude": 29.7159336, "longitude": -95.8133263}, "transactions": ["pickup", "delivery"], "price": "$$", "location": {"address1": "27110 Cinco Ranch Blvd", "address2": "Ste 200", "address3": "", "city": "Katy", "zip_code": "77494", "country": "US", "state": "TX", "display_address": ["27110 Cinco Ranch Blvd", "Ste 200", "Katy, TX 77494"]}, "phone": "+12813945565", "display_phone": "(281) 394-5565", "distance": 9471.847886121961}, {"id": "FnyoZfW8Kp6p8iTdh6SS9Q", "alias": "russos-new-york-pizzeria-sugar-land-2", "name": "Russo's New York Pizzeria", "image_url": "https://s3-media2.fl.yelpcdn.com/bphoto/vfLvu2y_l4X1l4t5tkGamA/o.jpg", "is_closed": false, "url": "https://www.yelp.com/biz/russos-new-york-pizzeria-sugar-land-2?adjust_creative=Q1Qdfk781tT6qWPSSx9wKg&utm_campaign=yelp_api_v3&utm_medium=api_v3_business_search&utm_source=Q1Qdfk781tT6qWPSSx9wKg", "review_count": 138, "categories": [{"alias": "pizza", "title": "Pizza"}, {"alias": "italian", "title": "Italian"}], "rating": 4.0, "coordinates": {"latitude": 29.6103347403589, "longitude": -95.6438670770851}, "transactions": ["pickup", "delivery"], "price": "$$", "location": {"address1": "403 Hwy 6 S", "address2": "Ste C", "address3": "", "city": "Sugar Land", "zip_code": "77478", "country": "US", "state": "TX", "display_address": ["403 Hwy 6 S", "Ste C", "Sugar Land, TX 77478"]}, "phone": "+12814941114", "display_phone": "(281) 494-1114", "distance": 10858.370449957321}, {"id": "OOYmcyOr7aSOmfGy8sWFqQ", "alias": "waters-edge-winery-and-bistro-richmond", "name": "Waters Edge Winery & Bistro - Richmond", "image_url": "https://s3-media3.fl.yelpcdn.com/bphoto/KCPRP5MjZB9Eupv_6FWrDw/o.jpg", "is_closed": false, "url": "https://www.yelp.com/biz/waters-edge-winery-and-bistro-richmond?adjust_creative=Q1Qdfk781tT6qWPSSx9wKg&utm_campaign=yelp_api_v3&utm_medium=api_v3_business_search&utm_source=Q1Qdfk781tT6qWPSSx9wKg", "review_count": 101, "categories": [{"alias": "wineries", "title": "Wineries"}, {"alias": "salad", "title": "Salad"}, {"alias": "burgers", "title": "Burgers"}], "rating": 3.5, "coordinates": {"latitude": 29.660487701136493, "longitude": -95.71624279510856}, "transactions": ["pickup", "delivery"], "price": "$$", "location": {"address1": "4828 Waterview Town Center Dr", "address2": "Ste 700", "address3": "", "city": "Richmond", "zip_code": "77407", "country": "US", "state": "TX", "display_address": ["4828 Waterview Town Center Dr", "Ste 700", "Richmond, TX 77407"]}, "phone": "+13468432320", "display_phone": "(346) 843-2320", "distance": 2047.8469796871354}, {"id": "Cypun2YQVo-QViYIA6X4-g", "alias": "dominos-pizza-katy-5", "name": "Domino's Pizza", "image_url": "https://s3-media4.fl.yelpcdn.com/bphoto/PfrhXqdCZLXwBLH0Gzcf3A/o.jpg", "is_closed": false, "url": "https://www.yelp.com/biz/dominos-pizza-katy-5?adjust_creative=Q1Qdfk781tT6qWPSSx9wKg&utm_campaign=yelp_api_v3&utm_medium=api_v3_business_search&utm_source=Q1Qdfk781tT6qWPSSx9wKg", "review_count": 51, "categories": [{"alias": "pizza", "title": "Pizza"}, {"alias": "chicken_wings", "title": "Chicken Wings"}, {"alias": "sandwiches", "title": "Sandwiches"}], "rating": 3.0, "coordinates": {"latitude": 29.733364, "longitude": -95.753369}, "transactions": [], "price": "$", "location": {"address1": "22001 Westheimer Pkwy", "address2": "Ste A", "address3": null, "city": "Katy", "zip_code": "77450", "country": "US", "state": "TX", "display_address": ["22001 Westheimer Pkwy", "Ste A", "Katy, TX 77450"]}, "phone": "+12816460290", "display_phone": "(281) 646-0290", "distance": 6821.48106902274}, {"id": "1u4hv53VolFwKEgfxJwJjw", "alias": "little-caesars-pizza-richmond-27", "name": "Little Caesars Pizza", "image_url": "https://s3-media2.fl.yelpcdn.com/bphoto/1gSS198Sowklda4aDnZXSQ/o.jpg", "is_closed": false, "url": "https://www.yelp.com/biz/little-caesars-pizza-richmond-27?adjust_creative=Q1Qdfk781tT6qWPSSx9wKg&utm_campaign=yelp_api_v3&utm_medium=api_v3_business_search&utm_source=Q1Qdfk781tT6qWPSSx9wKg", "review_count": 21, "categories": [{"alias": "pizza", "title": "Pizza"}, {"alias": "hotdogs", "title": "Fast Food"}], "rating": 1.5, "coordinates": {"latitude": 29.66335906602708, "longitude": -95.7412133}, "transactions": ["delivery"], "price": "$", "location": {"address1": "7909 W Grand Parkway S", "address2": "Ste 220", "address3": null, "city": "Richmond", "zip_code": "77407", "country": "US", "state": "TX", "display_address": ["7909 W Grand Parkway S", "Ste 220", "Richmond, TX 77407"]}, "phone": "+12817620769", "display_phone": "(281) 762-0769", "distance": 2070.019910246495}, {"id": "fFrLcz2s7Qf4RlMKxP-r_g", "alias": "napoli-express-pizza-sugar-land", "name": "Napoli Express Pizza", "image_url": "https://s3-media1.fl.yelpcdn.com/bphoto/EHyYALK35vb2IXGmHlUJPQ/o.jpg", "is_closed": false, "url": "https://www.yelp.com/biz/napoli-express-pizza-sugar-land?adjust_creative=Q1Qdfk781tT6qWPSSx9wKg&utm_campaign=yelp_api_v3&utm_medium=api_v3_business_search&utm_source=Q1Qdfk781tT6qWPSSx9wKg", "review_count": 71, "categories": [{"alias": "pizza", "title": "Pizza"}, {"alias": "italian", "title": "Italian"}], "rating": 4.0, "coordinates": {"latitude": 29.667946557595, "longitude": -95.6428207328796}, "transactions": ["delivery", "pickup"], "price": "$$", "location": {"address1": "10145 Hwy 6", "address2": "", "address3": "", "city": "Sugar Land", "zip_code": "77498", "country": "US", "state": "TX", "display_address": ["10145 Hwy 6", "Sugar Land, TX 77498"]}, "phone": "+12812400722", "display_phone": "(281) 240-0722", "distance": 8121.992345905175}, {"id": "opIp27E1CvvB9vtfk0gGaQ", "alias": "katy-station-katy-2", "name": "Katy Station", "image_url": "https://s3-media2.fl.yelpcdn.com/bphoto/45rnoi1Mv0mTi32nsU6Vjg/o.jpg", "is_closed": false, "url": "https://www.yelp.com/biz/katy-station-katy-2?adjust_creative=Q1Qdfk781tT6qWPSSx9wKg&utm_campaign=yelp_api_v3&utm_medium=api_v3_business_search&utm_source=Q1Qdfk781tT6qWPSSx9wKg", "review_count": 2, "categories": [{"alias": "beerbar", "title": "Beer Bar"}, {"alias": "pizza", "title": "Pizza"}], "rating": 4.5, "coordinates": {"latitude": 29.71232749999999, "longitude": -95.7718734}, "transactions": [], "location": {"address1": "6601 S Fry Rd", "address2": null, "address3": "Whole Foods Market", "city": "Katy", "zip_code": "77494", "country": "US", "state": "TX", "display_address": ["6601 S Fry Rd", "Whole Foods Market", "Katy, TX 77494"]}, "phone": "+12817695670", "display_phone": "(281) 769-5670", "distance": 5922.9809367017015}, {"id": "skKjdAue4LRhrw5UC7vt-g", "alias": "hungry-howies-katy-4", "name": "Hungry Howie's", "image_url": "https://s3-media2.fl.yelpcdn.com/bphoto/TnUY26udE73qaUwEWcSjhQ/o.jpg", "is_closed": false, "url": "https://www.yelp.com/biz/hungry-howies-katy-4?adjust_creative=Q1Qdfk781tT6qWPSSx9wKg&utm_campaign=yelp_api_v3&utm_medium=api_v3_business_search&utm_source=Q1Qdfk781tT6qWPSSx9wKg", "review_count": 37, "categories": [{"alias": "pizza", "title": "Pizza"}], "rating": 3.5, "coordinates": {"latitude": 29.75909249, "longitude": -95.7325}, "transactions": [], "location": {"address1": "21003 Highland Knolls Dr", "address2": "", "address3": null, "city": "Katy", "zip_code": "77450", "country": "US", "state": "TX", "display_address": ["21003 Highland Knolls Dr", "Katy, TX 77450"]}, "phone": "+12817126362", "display_phone": "(281) 712-6362", "distance": 9180.351830927666}, {"id": "Fx9Leqp7HmCxZ_ME356dXQ", "alias": "braman-winery-and-brewery-richmond", "name": "Braman Winery And Brewery", "image_url": "https://s3-media4.fl.yelpcdn.com/bphoto/X33kDKL-n6ZJEFTwSY8WQg/o.jpg", "is_closed": false, "url": "https://www.yelp.com/biz/braman-winery-and-brewery-richmond?adjust_creative=Q1Qdfk781tT6qWPSSx9wKg&utm_campaign=yelp_api_v3&utm_medium=api_v3_business_search&utm_source=Q1Qdfk781tT6qWPSSx9wKg", "review_count": 113, "categories": [{"alias": "wineries", "title": "Wineries"}, {"alias": "breweries", "title": "Breweries"}], "rating": 4.0, "coordinates": {"latitude": 29.626032, "longitude": -95.762064}, "transactions": [], "price": "$$", "location": {"address1": "3421 Fm 359 Rd", "address2": "", "address3": "", "city": "Richmond", "zip_code": "77406", "country": "US", "state": "TX", "display_address": ["3421 Fm 359 Rd", "Richmond, TX 77406"]}, "phone": "+12817621375", "display_phone": "(281) 762-1375", "distance": 6611.353279388771}, {"id": "TuFVcfj7YA2ItAXaNsdEVA", "alias": "caseys-houston-6", "name": "Casey's", "image_url": "https://s3-media2.fl.yelpcdn.com/bphoto/dUcBuzx8CVfK4ykS6AowIQ/o.jpg", "is_closed": false, "url": "https://www.yelp.com/biz/caseys-houston-6?adjust_creative=Q1Qdfk781tT6qWPSSx9wKg&utm_campaign=yelp_api_v3&utm_medium=api_v3_business_search&utm_source=Q1Qdfk781tT6qWPSSx9wKg", "review_count": 1, "categories": [{"alias": "servicestations", "title": "Gas Stations"}, {"alias": "convenience", "title": "Convenience Stores"}, {"alias": "pizza", "title": "Pizza"}], "rating": 1.0, "coordinates": {"latitude": 29.719234461413787, "longitude": -95.64339304384842}, "transactions": [], "location": {"address1": "3535 Highway 6 S", "address2": null, "address3": null, "city": "Houston", "zip_code": "77082", "country": "US", "state": "TX", "display_address": ["3535 Highway 6 S", "Houston, TX 77082"]}, "phone": "+18322436370", "display_phone": "(832) 243-6370", "distance": 9298.202412362094}, {"id": "ue_ThJ7DeFH5YqsCd6f7iA", "alias": "palios-pizza-katy", "name": "Palios Pizza", "image_url": "https://s3-media2.fl.yelpcdn.com/bphoto/kJbePtxLi991x2kxa1GsnQ/o.jpg", "is_closed": false, "url": "https://www.yelp.com/biz/palios-pizza-katy?adjust_creative=Q1Qdfk781tT6qWPSSx9wKg&utm_campaign=yelp_api_v3&utm_medium=api_v3_business_search&utm_source=Q1Qdfk781tT6qWPSSx9wKg", "review_count": 87, "categories": [{"alias": "pizza", "title": "Pizza"}], "rating": 3.5, "coordinates": {"latitude": 29.75929674007805, "longitude": -95.778128101166}, "transactions": ["delivery", "pickup"], "price": "$", "location": {"address1": "1450 W Grand Pkwy S", "address2": "Ste K", "address3": "", "city": "Katy", "zip_code": "77494", "country": "US", "state": "TX", "display_address": ["1450 W Grand Pkwy S", "Ste K", "Katy, TX 77494"]}, "phone": "+12813921212", "display_phone": "(281) 392-1212", "distance": 10459.64866877811}, {"id": "41rU5dstShdqqY0x9rKqTw", "alias": "the-grove-donutz-and-deli-richmond-2", "name": "The Grove Donutz & Deli", "image_url": "https://s3-media2.fl.yelpcdn.com/bphoto/89XzTO3Si0SI7AqGdw8heA/o.jpg", "is_closed": false, "url": "https://www.yelp.com/biz/the-grove-donutz-and-deli-richmond-2?adjust_creative=Q1Qdfk781tT6qWPSSx9wKg&utm_campaign=yelp_api_v3&utm_medium=api_v3_business_search&utm_source=Q1Qdfk781tT6qWPSSx9wKg", "review_count": 453, "categories": [{"alias": "donuts", "title": "Donuts"}, {"alias": "delis", "title": "Delis"}, {"alias": "cafes", "title": "Cafes"}], "rating": 4.5, "coordinates": {"latitude": 29.624306387037215, "longitude": -95.71759708220722}, "transactions": ["delivery", "pickup"], "price": "$", "location": {"address1": "815 Plantation Dr", "address2": "Ste 130", "address3": "", "city": "Richmond", "zip_code": "77406", "country": "US", "state": "TX", "display_address": ["815 Plantation Dr", "Ste 130", "Richmond, TX 77406"]}, "phone": "+18326003146", "display_phone": "(832) 600-3146", "distance": 5886.939525616522}, {"id": "LWYabKMCQNtaOjn1w0mB3w", "alias": "little-caesars-houston-27", "name": "Little Caesars", "image_url": "https://s3-media4.fl.yelpcdn.com/bphoto/rtKG6aw2AxjFhgm2Ll4qZQ/o.jpg", "is_closed": false, "url": "https://www.yelp.com/biz/little-caesars-houston-27?adjust_creative=Q1Qdfk781tT6qWPSSx9wKg&utm_campaign=yelp_api_v3&utm_medium=api_v3_business_search&utm_source=Q1Qdfk781tT6qWPSSx9wKg", "review_count": 18, "categories": [{"alias": "pizza", "title": "Pizza"}], "rating": 2.5, "coordinates": {"latitude": 29.7086448669434, "longitude": -95.6870498657227}, "transactions": [], "price": "$", "location": {"address1": "17135 Westheimer Rd", "address2": "", "address3": "", "city": "Houston", "zip_code": "77082", "country": "US", "state": "TX", "display_address": ["17135 Westheimer Rd", "Houston, TX 77082"]}, "phone": "+12812422009", "display_phone": "(281) 242-2009", "distance": 5193.319917385126}, {"id": "pvfg5IsQmMtSSrGS_ShL7w", "alias": "marcos-pizza-katy-3", "name": "Marco's Pizza", "image_url": "https://s3-media1.fl.yelpcdn.com/bphoto/awEoDDxWroAMkVcKXl_8tA/o.jpg", "is_closed": false, "url": "https://www.yelp.com/biz/marcos-pizza-katy-3?adjust_creative=Q1Qdfk781tT6qWPSSx9wKg&utm_campaign=yelp_api_v3&utm_medium=api_v3_business_search&utm_source=Q1Qdfk781tT6qWPSSx9wKg", "review_count": 25, "categories": [{"alias": "pizza", "title": "Pizza"}], "rating": 3.5, "coordinates": {"latitude": 29.71268, "longitude": -95.80617}, "transactions": ["delivery", "pickup"], "price": "$", "location": {"address1": "9006 S Fry Rd", "address2": "", "address3": null, "city": "Katy", "zip_code": "77494", "country": "US", "state": "TX", "display_address": ["9006 S Fry Rd", "Katy, TX 77494"]}, "phone": "+18329994241", "display_phone": "(832) 999-4241", "distance": 8691.778423695232}, {"id": "xRKOB6gFDndi_fZYjhkW2Q", "alias": "zn-pizza-houston", "name": "ZN Pizza", "image_url": "https://s3-media4.fl.yelpcdn.com/bphoto/-Zatr7n2VU7a7Xa41X5B4w/o.jpg", "is_closed": false, "url": "https://www.yelp.com/biz/zn-pizza-houston?adjust_creative=Q1Qdfk781tT6qWPSSx9wKg&utm_campaign=yelp_api_v3&utm_medium=api_v3_business_search&utm_source=Q1Qdfk781tT6qWPSSx9wKg", "review_count": 7, "categories": [{"alias": "pizza", "title": "Pizza"}], "rating": 4.5, "coordinates": {"latitude": 29.680106, "longitude": -95.63334}, "transactions": ["delivery", "pickup"], "location": {"address1": "14165 Bissonnet St", "address2": null, "address3": null, "city": "Houston", "zip_code": "77083", "country": "US", "state": "TX", "display_address": ["14165 Bissonnet St", "Houston, TX 77083"]}, "phone": "+18326332436", "display_phone": "(832) 633-2436", "distance": 8993.579587561679}, {"id": "HR09CZt56NIWh8q6QgUjkw", "alias": "marcos-pizza-katy", "name": "Marco's Pizza", "image_url": "https://s3-media2.fl.yelpcdn.com/bphoto/o9JOcPpMH887jhxt3xrAnA/o.jpg", "is_closed": false, "url": "https://www.yelp.com/biz/marcos-pizza-katy?adjust_creative=Q1Qdfk781tT6qWPSSx9wKg&utm_campaign=yelp_api_v3&utm_medium=api_v3_business_search&utm_source=Q1Qdfk781tT6qWPSSx9wKg", "review_count": 36, "categories": [{"alias": "pizza", "title": "Pizza"}, {"alias": "italian", "title": "Italian"}, {"alias": "salad", "title": "Salad"}], "rating": 3.5, "coordinates": {"latitude": 29.73645, "longitude": -95.77739}, "transactions": ["delivery", "pickup"], "price": "$", "location": {"address1": "23730 Westheimer Pkwy", "address2": "", "address3": "", "city": "Katy", "zip_code": "77494", "country": "US", "state": "TX", "display_address": ["23730 Westheimer Pkwy", "Katy, TX 77494"]}, "phone": "+12813952900", "display_phone": "(281) 395-2900", "distance": 8276.18499174802}, {"id": "Q3rGUK7QubW2lDwVNK_dlw", "alias": "bricco-katy", "name": "Bricco", "image_url": "https://s3-media2.fl.yelpcdn.com/bphoto/vXZov4T4ucb7N-_wV8cU1A/o.jpg", "is_closed": false, "url": "https://www.yelp.com/biz/bricco-katy?adjust_creative=Q1Qdfk781tT6qWPSSx9wKg&utm_campaign=yelp_api_v3&utm_medium=api_v3_business_search&utm_source=Q1Qdfk781tT6qWPSSx9wKg", "review_count": 14, "categories": [{"alias": "newamerican", "title": "American (New)"}, {"alias": "cocktailbars", "title": "Cocktail Bars"}, {"alias": "tapasmallplates", "title": "Tapas/Small Plates"}], "rating": 3.0, "coordinates": {"latitude": 29.75498784049853, "longitude": -95.75191651679964}, "transactions": ["delivery", "pickup"], "location": {"address1": "1850 S Mason Rd", "address2": "Ste 100", "address3": null, "city": "Katy", "zip_code": "77450", "country": "US", "state": "TX", "display_address": ["1850 S Mason Rd", "Ste 100", "Katy, TX 77450"]}, "phone": "+12813712749", "display_phone": "(281) 371-2749", "distance": 9049.50735456487}, {"id": "cLBmPW0r5mea7SI4nThpkQ", "alias": "dominos-pizza-sugar-land-4", "name": "Domino's Pizza", "image_url": "https://s3-media2.fl.yelpcdn.com/bphoto/3wgoqdLUV8ERgbpVA_vQnA/o.jpg", "is_closed": false, "url": "https://www.yelp.com/biz/dominos-pizza-sugar-land-4?adjust_creative=Q1Qdfk781tT6qWPSSx9wKg&utm_campaign=yelp_api_v3&utm_medium=api_v3_business_search&utm_source=Q1Qdfk781tT6qWPSSx9wKg", "review_count": 36, "categories": [{"alias": "pizza", "title": "Pizza"}, {"alias": "chicken_wings", "title": "Chicken Wings"}, {"alias": "sandwiches", "title": "Sandwiches"}], "rating": 2.0, "coordinates": {"latitude": 29.641883, "longitude": -95.652258}, "transactions": [], "price": "$", "location": {"address1": "11940 S Highway 6", "address2": null, "address3": null, "city": "Sugar Land", "zip_code": "77498", "country": "US", "state": "TX", "display_address": ["11940 S Highway 6", "Sugar Land, TX 77498"]}, "phone": "+18323512600", "display_phone": "(832) 351-2600", "distance": 8133.841187361094}, {"id": "cYPHSN1bJLpHhVqsgN8Xyw", "alias": "aji-ramen-katy", "name": "AJI Ramen", "image_url": "https://s3-media4.fl.yelpcdn.com/bphoto/hFgshrpnH8qMooZZ7f92bQ/o.jpg", "is_closed": false, "url": "https://www.yelp.com/biz/aji-ramen-katy?adjust_creative=Q1Qdfk781tT6qWPSSx9wKg&utm_campaign=yelp_api_v3&utm_medium=api_v3_business_search&utm_source=Q1Qdfk781tT6qWPSSx9wKg", "review_count": 325, "categories": [{"alias": "ramen", "title": "Ramen"}, {"alias": "izakaya", "title": "Izakaya"}], "rating": 4.5, "coordinates": {"latitude": 29.75528, "longitude": -95.75012}, "transactions": ["delivery", "pickup"], "price": "$$", "location": {"address1": "1645 Winding Hollow Dr", "address2": "Ste 206", "address3": null, "city": "Katy", "zip_code": "77450", "country": "US", "state": "TX", "display_address": ["1645 Winding Hollow Dr", "Ste 206", "Katy, TX 77450"]}, "phone": "+12817174826", "display_phone": "(281) 717-4826", "distance": 9036.283164715875}, {"id": "litIz_CLNH8PN9hroaWGmw", "alias": "hasta-la-pasta-katy-2", "name": "Hasta La Pasta", "image_url": "https://s3-media3.fl.yelpcdn.com/bphoto/Yf-0f6s77gqufrV-VMcwKw/o.jpg", "is_closed": false, "url": "https://www.yelp.com/biz/hasta-la-pasta-katy-2?adjust_creative=Q1Qdfk781tT6qWPSSx9wKg&utm_campaign=yelp_api_v3&utm_medium=api_v3_business_search&utm_source=Q1Qdfk781tT6qWPSSx9wKg", "review_count": 19, "categories": [{"alias": "italian", "title": "Italian"}], "rating": 4.0, "coordinates": {"latitude": 29.75875, "longitude": -95.77815}, "transactions": ["pickup"], "location": {"address1": "1450 Grand Pkwy", "address2": null, "address3": null, "city": "Katy", "zip_code": "77494", "country": "US", "state": "TX", "display_address": ["1450 Grand Pkwy", "Katy, TX 77494"]}, "phone": "+12813988300", "display_phone": "(281) 398-8300", "distance": 10415.813620332572}, {"id": "AXyQNeFKb7xKsJsB7mTXsg", "alias": "meesobella-bakery-richmond", "name": "Meesobella Bakery", "image_url": "https://s3-media4.fl.yelpcdn.com/bphoto/RpHrWGgm6f08K94whFL5gg/o.jpg", "is_closed": false, "url": "https://www.yelp.com/biz/meesobella-bakery-richmond?adjust_creative=Q1Qdfk781tT6qWPSSx9wKg&utm_campaign=yelp_api_v3&utm_medium=api_v3_business_search&utm_source=Q1Qdfk781tT6qWPSSx9wKg", "review_count": 24, "categories": [{"alias": "bakeries", "title": "Bakeries"}], "rating": 4.5, "coordinates": {"latitude": 29.698155, "longitude": -95.791156}, "transactions": ["delivery", "pickup"], "location": {"address1": "7109 Katy-Gaston Rd", "address2": "Ste 700", "address3": null, "city": "Richmond", "zip_code": "77406", "country": "US", "state": "TX", "display_address": ["7109 Katy-Gaston Rd", "Ste 700", "Richmond, TX 77406"]}, "phone": "+18324516374", "display_phone": "(832) 451-6374", "distance": 6703.448507950653}, {"id": "U7u4EoiaL6sBUr6vL8NaXQ", "alias": "san-eatery-katy", "name": "San Eatery", "image_url": "https://s3-media2.fl.yelpcdn.com/bphoto/Q-G5V9vyemlB509ZMd9bxA/o.jpg", "is_closed": false, "url": "https://www.yelp.com/biz/san-eatery-katy?adjust_creative=Q1Qdfk781tT6qWPSSx9wKg&utm_campaign=yelp_api_v3&utm_medium=api_v3_business_search&utm_source=Q1Qdfk781tT6qWPSSx9wKg", "review_count": 120, "categories": [{"alias": "latin", "title": "Latin American"}, {"alias": "sushi", "title": "Sushi Bars"}, {"alias": "chinese", "title": "Chinese"}], "rating": 4.5, "coordinates": {"latitude": 29.702119, "longitude": -95.760997}, "transactions": ["delivery", "pickup"], "price": "$$", "location": {"address1": "6356 S Peek Rd", "address2": "", "address3": "", "city": "Katy", "zip_code": "77450", "country": "US", "state": "TX", "display_address": ["6356 S Peek Rd", "Katy, TX 77450"]}, "phone": "+12817174134", "display_phone": "(281) 717-4134", "distance": 4396.15854915001}, {"id": "CpYSi-EG1MOgGvMhoBcpKA", "alias": "dominos-pizza-katy-4", "name": "Domino's Pizza", "image_url": "https://s3-media2.fl.yelpcdn.com/bphoto/T183Ll_inLbN-sullVt-Uw/o.jpg", "is_closed": false, "url": "https://www.yelp.com/biz/dominos-pizza-katy-4?adjust_creative=Q1Qdfk781tT6qWPSSx9wKg&utm_campaign=yelp_api_v3&utm_medium=api_v3_business_search&utm_source=Q1Qdfk781tT6qWPSSx9wKg", "review_count": 33, "categories": [{"alias": "pizza", "title": "Pizza"}, {"alias": "chicken_wings", "title": "Chicken Wings"}, {"alias": "sandwiches", "title": "Sandwiches"}], "rating": 3.0, "coordinates": {"latitude": 29.7185748239314, "longitude": -95.8099269292099}, "transactions": [], "price": "$", "location": {"address1": "4950 Katy Gaston Rd", "address2": "Ste A", "address3": null, "city": "Katy", "zip_code": "77494", "country": "US", "state": "TX", "display_address": ["4950 Katy Gaston Rd", "Ste A", "Katy, TX 77494"]}, "phone": "+12815742070", "display_phone": "(281) 574-2070", "distance": 9324.633389106828}, {"id": "1Vzv8zxgWfKg8J8bFHw0CA", "alias": "star-cinema-richmond", "name": "Star Cinema", "image_url": "https://s3-media2.fl.yelpcdn.com/bphoto/b2cskY5m8zXI3QV2MsMNYw/o.jpg", "is_closed": false, "url": "https://www.yelp.com/biz/star-cinema-richmond?adjust_creative=Q1Qdfk781tT6qWPSSx9wKg&utm_campaign=yelp_api_v3&utm_medium=api_v3_business_search&utm_source=Q1Qdfk781tT6qWPSSx9wKg", "review_count": 166, "categories": [{"alias": "movietheaters", "title": "Cinema"}], "rating": 4.0, "coordinates": {"latitude": 29.698950149655204, "longitude": -95.76459500247984}, "transactions": [], "location": {"address1": "22125 Fm 1093", "address2": null, "address3": "", "city": "Richmond", "zip_code": "77407", "country": "US", "state": "TX", "display_address": ["22125 Fm 1093", "Richmond, TX 77407"]}, "phone": "+18329137827", "display_phone": "(832) 913-7827", "distance": 4451.428296151987}, {"id": "lqMBD3IvNjkra2y56vJ0WQ", "alias": "ramble-creek-grill-grand-parkway-richmond-5", "name": "Ramble Creek Grill - Grand Parkway", "image_url": "https://s3-media4.fl.yelpcdn.com/bphoto/yGTin3zsbxdBTZrMkpynYQ/o.jpg", "is_closed": false, "url": "https://www.yelp.com/biz/ramble-creek-grill-grand-parkway-richmond-5?adjust_creative=Q1Qdfk781tT6qWPSSx9wKg&utm_campaign=yelp_api_v3&utm_medium=api_v3_business_search&utm_source=Q1Qdfk781tT6qWPSSx9wKg", "review_count": 672, "categories": [{"alias": "steak", "title": "Steakhouses"}, {"alias": "burgers", "title": "Burgers"}, {"alias": "cocktailbars", "title": "Cocktail Bars"}], "rating": 4.5, "coordinates": {"latitude": 29.66083639999999, "longitude": -95.74096872566}, "transactions": ["pickup", "delivery"], "price": "$$", "location": {"address1": "7930 W Grand Pkwy  S", "address2": null, "address3": "", "city": "Richmond", "zip_code": "77406", "country": "US", "state": "TX", "display_address": ["7930 W Grand Pkwy  S", "Richmond, TX 77406"]}, "phone": "+18322229371", "display_phone": "(832) 222-9371", "distance": 2264.696078690313}, {"id": "IHsk4abrh2108f-yU-rDCA", "alias": "dominos-pizza-houston-82", "name": "Domino's Pizza", "image_url": "https://s3-media1.fl.yelpcdn.com/bphoto/amNFn-xzmPNAgSas7rqlNQ/o.jpg", "is_closed": false, "url": "https://www.yelp.com/biz/dominos-pizza-houston-82?adjust_creative=Q1Qdfk781tT6qWPSSx9wKg&utm_campaign=yelp_api_v3&utm_medium=api_v3_business_search&utm_source=Q1Qdfk781tT6qWPSSx9wKg", "review_count": 34, "categories": [{"alias": "pizza", "title": "Pizza"}, {"alias": "chicken_wings", "title": "Chicken Wings"}, {"alias": "sandwiches", "title": "Sandwiches"}], "rating": 2.0, "coordinates": {"latitude": 29.701013, "longitude": -95.6541503}, "transactions": [], "price": "$", "location": {"address1": "15166 Bellaire Blvd", "address2": "", "address3": "", "city": "Houston", "zip_code": "77083", "country": "US", "state": "TX", "display_address": ["15166 Bellaire Blvd", "Houston, TX 77083"]}, "phone": "+12815685335", "display_phone": "(281) 568-5335", "distance": 7547.803945314087}, {"id": "Od4pdoTKE7wdUPL4wJoGIQ", "alias": "pastelitos-cafe-houston", "name": "Pastelitos Cafe", "image_url": "https://s3-media1.fl.yelpcdn.com/bphoto/-fxrR7Sq0Cv9Yy0vyQ8yNA/o.jpg", "is_closed": false, "url": "https://www.yelp.com/biz/pastelitos-cafe-houston?adjust_creative=Q1Qdfk781tT6qWPSSx9wKg&utm_campaign=yelp_api_v3&utm_medium=api_v3_business_search&utm_source=Q1Qdfk781tT6qWPSSx9wKg", "review_count": 466, "categories": [{"alias": "breakfast_brunch", "title": "Breakfast & Brunch"}, {"alias": "cafes", "title": "Cafes"}, {"alias": "venezuelan", "title": "Venezuelan"}], "rating": 4.5, "coordinates": {"latitude": 29.748886, "longitude": -95.624641}, "transactions": ["pickup", "delivery"], "price": "$", "location": {"address1": "1809 Eldridge Pkwy", "address2": "", "address3": "", "city": "Houston", "zip_code": "77077", "country": "US", "state": "TX", "display_address": ["1809 Eldridge Pkwy", "Houston, TX 77077"]}, "phone": "+12815317740", "display_phone": "(281) 531-7740", "distance": 12693.030462056808}, {"id": "d3oQzh2ijAyrOy5k3O1AgA", "alias": "pizza-fino-beechnut-houston", "name": "Pizza Fino - Beechnut", "image_url": "https://s3-media2.fl.yelpcdn.com/bphoto/3EXcumxy9XPRxSRBA2kZ4Q/o.jpg", "is_closed": false, "url": "https://www.yelp.com/biz/pizza-fino-beechnut-houston?adjust_creative=Q1Qdfk781tT6qWPSSx9wKg&utm_campaign=yelp_api_v3&utm_medium=api_v3_business_search&utm_source=Q1Qdfk781tT6qWPSSx9wKg", "review_count": 16, "categories": [{"alias": "pizza", "title": "Pizza"}, {"alias": "chicken_wings", "title": "Chicken Wings"}, {"alias": "halal", "title": "Halal"}], "rating": 2.5, "coordinates": {"latitude": 29.688649796319737, "longitude": -95.6473128828315}, "transactions": ["pickup", "delivery"], "price": "$", "location": {"address1": "14635 Beechnut St", "address2": "Ste B", "address3": "", "city": "Houston", "zip_code": "77083", "country": "US", "state": "TX", "display_address": ["14635 Beechnut St", "Ste B", "Houston, TX 77083"]}, "phone": "+12814954040", "display_phone": "(281) 495-4040", "distance": 7743.253984676009}, {"id": "lnBzBr5r0DcsM33DGoACkg", "alias": "little-caesars-houston-7", "name": "Little Caesars", "image_url": "https://s3-media3.fl.yelpcdn.com/bphoto/SIfHqbjocA1L6tBv4P3biA/o.jpg", "is_closed": false, "url": "https://www.yelp.com/biz/little-caesars-houston-7?adjust_creative=Q1Qdfk781tT6qWPSSx9wKg&utm_campaign=yelp_api_v3&utm_medium=api_v3_business_search&utm_source=Q1Qdfk781tT6qWPSSx9wKg", "review_count": 35, "categories": [{"alias": "pizza", "title": "Pizza"}], "rating": 1.5, "coordinates": {"latitude": 29.704552, "longitude": -95.642782}, "transactions": [], "price": "$", "location": {"address1": "6763 Hwy 6 S", "address2": "Ste 1600", "address3": null, "city": "Houston", "zip_code": "77083", "country": "US", "state": "TX", "display_address": ["6763 Hwy 6 S", "Ste 1600", "Houston, TX 77083"]}, "phone": "+18323283500", "display_phone": "(832) 328-3500", "distance": 8639.43411704289}, {"id": "3ptFKIf52xU0M26B6rCA1A", "alias": "pampa-argentine-grill-and-bar-katy", "name": "Pampa Argentine Grill & Bar", "image_url": "https://s3-media3.fl.yelpcdn.com/bphoto/YJ2UYACnj9ZkIISAFgmB4Q/o.jpg", "is_closed": false, "url": "https://www.yelp.com/biz/pampa-argentine-grill-and-bar-katy?adjust_creative=Q1Qdfk781tT6qWPSSx9wKg&utm_campaign=yelp_api_v3&utm_medium=api_v3_business_search&utm_source=Q1Qdfk781tT6qWPSSx9wKg", "review_count": 21, "categories": [{"alias": "argentine", "title": "Argentine"}, {"alias": "bars", "title": "Bars"}, {"alias": "sandwiches", "title": "Sandwiches"}], "rating": 5.0, "coordinates": {"latitude": 29.7505601, "longitude": -95.7993163}, "transactions": ["pickup", "delivery"], "location": {"address1": "25707 Westheimer Pkwy", "address2": "", "address3": null, "city": "Katy", "zip_code": "77494", "country": "US", "state": "TX", "display_address": ["25707 Westheimer Pkwy", "Katy, TX 77494"]}, "phone": "+12815749321", "display_phone": "(281) 574-9321", "distance": 10825.255412025535}, {"id": "HKmbp07_QELlrApa92oiVw", "alias": "papa-johns-pizza-sugar-land", "name": "Papa Johns Pizza", "image_url": "https://s3-media1.fl.yelpcdn.com/bphoto/6FomD_KKRHEz6ZAiMUjwLw/o.jpg", "is_closed": false, "url": "https://www.yelp.com/biz/papa-johns-pizza-sugar-land?adjust_creative=Q1Qdfk781tT6qWPSSx9wKg&utm_campaign=yelp_api_v3&utm_medium=api_v3_business_search&utm_source=Q1Qdfk781tT6qWPSSx9wKg", "review_count": 37, "categories": [{"alias": "pizza", "title": "Pizza"}, {"alias": "chicken_wings", "title": "Chicken Wings"}, {"alias": "hotdogs", "title": "Fast Food"}], "rating": 1.5, "coordinates": {"latitude": 29.648697, "longitude": -95.649566}, "transactions": ["pickup", "delivery"], "price": "$", "location": {"address1": "11545 Highway 6 S", "address2": "", "address3": "", "city": "Sugar Land", "zip_code": "77478", "country": "US", "state": "TX", "display_address": ["11545 Highway 6 S", "Sugar Land, TX 77478"]}, "phone": "+12812777207", "display_phone": "(281) 277-7207", "distance": 8041.758874774435}, {"id": "79fxgOdzWNMQNxXV6KuMGg", "alias": "tom-n-toms-coffee-richmond", "name": "Tom N Toms Coffee", "image_url": "https://s3-media2.fl.yelpcdn.com/bphoto/8kMO-ZonadH5PZUpgQeqkQ/o.jpg", "is_closed": false, "url": "https://www.yelp.com/biz/tom-n-toms-coffee-richmond?adjust_creative=Q1Qdfk781tT6qWPSSx9wKg&utm_campaign=yelp_api_v3&utm_medium=api_v3_business_search&utm_source=Q1Qdfk781tT6qWPSSx9wKg", "review_count": 15, "categories": [{"alias": "coffee", "title": "Coffee & Tea"}, {"alias": "pretzels", "title": "Pretzels"}], "rating": 3.5, "coordinates": {"latitude": 29.70240176076676, "longitude": -95.76088340238792}, "transactions": [], "price": "$$", "location": {"address1": "6356 Peek Rd", "address2": "Ste 400", "address3": null, "city": "Richmond", "zip_code": "77450", "country": "US", "state": "TX", "display_address": ["6356 Peek Rd", "Ste 400", "Richmond, TX 77450"]}, "phone": "+12813716998", "display_phone": "(281) 371-6998", "distance": 4397.167005965689}, {"id": "gZS6d-Xr2HL_ABo6JtIrdQ", "alias": "pizza-hut-katy", "name": "Pizza Hut", "image_url": "https://s3-media4.fl.yelpcdn.com/bphoto/n7Wdqf3Au-FpNd_xUFujUg/o.jpg", "is_closed": false, "url": "https://www.yelp.com/biz/pizza-hut-katy?adjust_creative=Q1Qdfk781tT6qWPSSx9wKg&utm_campaign=yelp_api_v3&utm_medium=api_v3_business_search&utm_source=Q1Qdfk781tT6qWPSSx9wKg", "review_count": 53, "categories": [{"alias": "pizza", "title": "Pizza"}, {"alias": "chicken_wings", "title": "Chicken Wings"}, {"alias": "hotdogs", "title": "Fast Food"}], "rating": 2.0, "coordinates": {"latitude": 29.734988, "longitude": -95.7530101}, "transactions": ["pickup", "delivery"], "price": "$", "location": {"address1": "22082 Westheimer Pkwy", "address2": "", "address3": "", "city": "Katy", "zip_code": "77450", "country": "US", "state": "TX", "display_address": ["22082 Westheimer Pkwy", "Katy, TX 77450"]}, "phone": "+12815781936", "display_phone": "(281) 578-1936", "distance": 6975.684179082174}, {"id": "GJabt3890wC_ahZCAeJ9hw", "alias": "bar-louie-katy-katy", "name": "Bar Louie - Katy", "image_url": "https://s3-media3.fl.yelpcdn.com/bphoto/xNXu0IcCGETknMWHZbG4sg/o.jpg", "is_closed": false, "url": "https://www.yelp.com/biz/bar-louie-katy-katy?adjust_creative=Q1Qdfk781tT6qWPSSx9wKg&utm_campaign=yelp_api_v3&utm_medium=api_v3_business_search&utm_source=Q1Qdfk781tT6qWPSSx9wKg", "review_count": 273, "categories": [{"alias": "bars", "title": "Bars"}, {"alias": "newamerican", "title": "American (New)"}, {"alias": "gastropubs", "title": "Gastropubs"}], "rating": 3.5, "coordinates": {"latitude": 29.740084, "longitude": -95.773928}, "transactions": ["pickup", "delivery"], "price": "$$", "location": {"address1": "2707 Commercial Center Blvd", "address2": "", "address3": null, "city": "Katy", "zip_code": "77494", "country": "US", "state": "TX", "display_address": ["2707 Commercial Center Blvd", "Katy, TX 77494"]}, "phone": "+12813945480", "display_phone": "(281) 394-5480", "distance": 8455.834011424742}, {"id": "ecRdpBwa_FxoXaLj_Ww4kg", "alias": "pizza-hut-houston-64", "name": "Pizza Hut", "image_url": "https://s3-media1.fl.yelpcdn.com/bphoto/SUEPrVMVwPQLnLoyfOy-Hg/o.jpg", "is_closed": false, "url": "https://www.yelp.com/biz/pizza-hut-houston-64?adjust_creative=Q1Qdfk781tT6qWPSSx9wKg&utm_campaign=yelp_api_v3&utm_medium=api_v3_business_search&utm_source=Q1Qdfk781tT6qWPSSx9wKg", "review_count": 82, "categories": [{"alias": "pizza", "title": "Pizza"}, {"alias": "chicken_wings", "title": "Chicken Wings"}, {"alias": "hotdogs", "title": "Fast Food"}], "rating": 1.5, "coordinates": {"latitude": 29.72235, "longitude": -95.64479}, "transactions": ["delivery"], "price": "$", "location": {"address1": "3320 Hwy 6", "address2": "Ste B", "address3": null, "city": "Houston", "zip_code": "77082", "country": "US", "state": "TX", "display_address": ["3320 Hwy 6", "Ste B", "Houston, TX 77082"]}, "phone": "+12815587041", "display_phone": "(281) 558-7041", "distance": 9360.24563474408}, {"id": "4rfKPA-TcZGOuoiEuzsVSQ", "alias": "papa-johns-pizza-houston-49", "name": "Papa Johns Pizza", "image_url": "https://s3-media3.fl.yelpcdn.com/bphoto/gwXxXloCLD3_fUcSyK_gmg/o.jpg", "is_closed": false, "url": "https://www.yelp.com/biz/papa-johns-pizza-houston-49?adjust_creative=Q1Qdfk781tT6qWPSSx9wKg&utm_campaign=yelp_api_v3&utm_medium=api_v3_business_search&utm_source=Q1Qdfk781tT6qWPSSx9wKg", "review_count": 48, "categories": [{"alias": "pizza", "title": "Pizza"}, {"alias": "chicken_wings", "title": "Chicken Wings"}, {"alias": "hotdogs", "title": "Fast Food"}], "rating": 1.5, "coordinates": {"latitude": 29.727298864218245, "longitude": -95.64472332944774}, "transactions": ["pickup", "delivery"], "price": "$", "location": {"address1": "2838 Highway 6 S", "address2": "", "address3": "", "city": "Houston", "zip_code": "77082", "country": "US", "state": "TX", "display_address": ["2838 Highway 6 S", "Houston, TX 77082"]}, "phone": "+12815687272", "display_phone": "(281) 568-7272", "distance": 9679.637830448548}, {"id": "kMsh_eqpr5MLQb_pZcJDEg", "alias": "astor-farm-to-table-katy", "name": "Astor Farm to Table", "image_url": "https://s3-media4.fl.yelpcdn.com/bphoto/QmQo-1GNGUA8o3ku4QmvvQ/o.jpg", "is_closed": false, "url": "https://www.yelp.com/biz/astor-farm-to-table-katy?adjust_creative=Q1Qdfk781tT6qWPSSx9wKg&utm_campaign=yelp_api_v3&utm_medium=api_v3_business_search&utm_source=Q1Qdfk781tT6qWPSSx9wKg", "review_count": 599, "categories": [{"alias": "breakfast_brunch", "title": "Breakfast & Brunch"}, {"alias": "steak", "title": "Steakhouses"}, {"alias": "southafrican", "title": "South African"}], "rating": 4.5, "coordinates": {"latitude": 29.75906637422249, "longitude": -95.75191951408978}, "transactions": ["delivery"], "price": "$$", "location": {"address1": "1590 S Mason Rd", "address2": "Suit A", "address3": null, "city": "Katy", "zip_code": "77450", "country": "US", "state": "TX", "display_address": ["1590 S Mason Rd", "Suit A", "Katy, TX 77450"]}, "phone": "+18329136465", "display_phone": "(832) 913-6465", "distance": 9486.591273652799}, {"id": "Ucat_P7Yl9fGMkeWGOsU5w", "alias": "cooking-girl-sugar-land-2", "name": "Cooking Girl", "image_url": "https://s3-media4.fl.yelpcdn.com/bphoto/cDprxkZyNDUaD5yfzy5v-A/o.jpg", "is_closed": false, "url": "https://www.yelp.com/biz/cooking-girl-sugar-land-2?adjust_creative=Q1Qdfk781tT6qWPSSx9wKg&utm_campaign=yelp_api_v3&utm_medium=api_v3_business_search&utm_source=Q1Qdfk781tT6qWPSSx9wKg", "review_count": 370, "categories": [{"alias": "szechuan", "title": "Szechuan"}], "rating": 4.0, "coordinates": {"latitude": 29.6071946, "longitude": -95.6428836}, "transactions": ["pickup", "delivery"], "price": "$$", "location": {"address1": "636 Hwy 6", "address2": "Ste 900", "address3": null, "city": "Sugar Land", "zip_code": "77478", "country": "US", "state": "TX", "display_address": ["636 Hwy 6", "Ste 900", "Sugar Land, TX 77478"]}, "phone": "+12812421131", "display_phone": "(281) 242-1131", "distance": 11167.146122890113}, {"id": "Qxv8DVE3NM3bD9YuG4m9Hw", "alias": "ostioneria-el-rolis-houston", "name": "Ostioneria El Rolis", "image_url": "https://s3-media4.fl.yelpcdn.com/bphoto/OxtPz0-qgG9L0poYdwYu_A/o.jpg", "is_closed": false, "url": "https://www.yelp.com/biz/ostioneria-el-rolis-houston?adjust_creative=Q1Qdfk781tT6qWPSSx9wKg&utm_campaign=yelp_api_v3&utm_medium=api_v3_business_search&utm_source=Q1Qdfk781tT6qWPSSx9wKg", "review_count": 4, "categories": [{"alias": "seafood", "title": "Seafood"}, {"alias": "karaoke", "title": "Karaoke"}, {"alias": "musicvenues", "title": "Music Venues"}], "rating": 5.0, "coordinates": {"latitude": 29.71644402281831, "longitude": -95.6433715}, "transactions": ["pickup", "delivery"], "location": {"address1": "3715 S Texas 6", "address2": "Ste 200", "address3": null, "city": "Houston", "zip_code": "77082", "country": "US", "state": "TX", "display_address": ["3715 S Texas 6", "Ste 200", "Houston, TX 77082"]}, "phone": "+18325982492", "display_phone": "(832) 598-2492", "distance": 9146.228758322446}, {"id": "loi8lidMGQJ5HrSpjeW0mw", "alias": "toscana-pizza-houston", "name": "Toscana Pizza", "image_url": "", "is_closed": false, "url": "https://www.yelp.com/biz/toscana-pizza-houston?adjust_creative=Q1Qdfk781tT6qWPSSx9wKg&utm_campaign=yelp_api_v3&utm_medium=api_v3_business_search&utm_source=Q1Qdfk781tT6qWPSSx9wKg", "review_count": 1, "categories": [{"alias": "pizza", "title": "Pizza"}], "rating": 5.0, "coordinates": {"latitude": 29.7285761, "longitude": -95.6355615}, "transactions": ["pickup", "delivery"], "location": {"address1": "2941 Westhollow Dr", "address2": null, "address3": null, "city": "Houston", "zip_code": "77082", "country": "US", "state": "TX", "display_address": ["2941 Westhollow Dr", "Houston, TX 77082"]}, "phone": "+12815584888", "display_phone": "(281) 558-4888", "distance": 10511.495502148384}, {"id": "cXZWVWdKuzYFMcZBENdAvg", "alias": "papa-johns-pizza-katy-5", "name": "Papa Johns Pizza", "image_url": "https://s3-media3.fl.yelpcdn.com/bphoto/C0TXOSx955LsqpQ0bMTXRQ/o.jpg", "is_closed": false, "url": "https://www.yelp.com/biz/papa-johns-pizza-katy-5?adjust_creative=Q1Qdfk781tT6qWPSSx9wKg&utm_campaign=yelp_api_v3&utm_medium=api_v3_business_search&utm_source=Q1Qdfk781tT6qWPSSx9wKg", "review_count": 34, "categories": [{"alias": "pizza", "title": "Pizza"}, {"alias": "chicken_wings", "title": "Chicken Wings"}, {"alias": "hotdogs", "title": "Fast Food"}], "rating": 2.0, "coordinates": {"latitude": 29.702717, "longitude": -95.815803}, "transactions": ["pickup", "delivery"], "price": "$", "location": {"address1": "9727 Spring Green Blvd", "address2": "Ste 800", "address3": "", "city": "Katy", "zip_code": "77494", "country": "US", "state": "TX", "display_address": ["9727 Spring Green Blvd", "Ste 800", "Katy, TX 77494"]}, "phone": "+12813477272", "display_phone": "(281) 347-7272", "distance": 9118.61077627313}, {"id": "BWXFvt2jN5r7zig1Q9RtiQ", "alias": "little-caesars-pizza-katy-4", "name": "Little Caesars Pizza", "image_url": "https://s3-media1.fl.yelpcdn.com/bphoto/4lqlSNrFR2dvg7-k3wHXeg/o.jpg", "is_closed": false, "url": "https://www.yelp.com/biz/little-caesars-pizza-katy-4?adjust_creative=Q1Qdfk781tT6qWPSSx9wKg&utm_campaign=yelp_api_v3&utm_medium=api_v3_business_search&utm_source=Q1Qdfk781tT6qWPSSx9wKg", "review_count": 37, "categories": [{"alias": "pizza", "title": "Pizza"}, {"alias": "hotdogs", "title": "Fast Food"}], "rating": 1.5, "coordinates": {"latitude": 29.7159298768245, "longitude": -95.8153875572978}, "transactions": ["delivery"], "price": "$", "location": {"address1": "100 Spring Green Blvd Ste 100", "address2": "", "address3": "", "city": "Katy", "zip_code": "77494", "country": "US", "state": "TX", "display_address": ["100 Spring Green Blvd Ste 100", "Katy, TX 77494"]}, "phone": "+12813923433", "display_phone": "(281) 392-3433", "distance": 9648.82986905794}, {"id": "qPpaG-E0vilBZJMqAjaNfw", "alias": "world-of-beer-katy-2", "name": "World of Beer", "image_url": "https://s3-media3.fl.yelpcdn.com/bphoto/LuNNdumQjLF3nS4IPrcJDw/o.jpg", "is_closed": false, "url": "https://www.yelp.com/biz/world-of-beer-katy-2?adjust_creative=Q1Qdfk781tT6qWPSSx9wKg&utm_campaign=yelp_api_v3&utm_medium=api_v3_business_search&utm_source=Q1Qdfk781tT6qWPSSx9wKg", "review_count": 228, "categories": [{"alias": "gastropubs", "title": "Gastropubs"}, {"alias": "tradamerican", "title": "American (Traditional)"}], "rating": 3.0, "coordinates": {"latitude": 29.740810603043, "longitude": -95.7745466422731}, "transactions": ["pickup", "delivery"], "price": "$$", "location": {"address1": "2643 Commercial Center Blvd", "address2": "Ste B390", "address3": "", "city": "Katy", "zip_code": "77494", "country": "US", "state": "TX", "display_address": ["2643 Commercial Center Blvd", "Ste B390", "Katy, TX 77494"]}, "phone": "+12816752652", "display_phone": "(281) 675-2652", "distance": 8516.790207174148}, {"id": "m82UI1jnzJ7NRuG3DE-Suw", "alias": "tuttopane-houston", "name": "Tuttopane", "image_url": "https://s3-media1.fl.yelpcdn.com/bphoto/-XIzdctR7kvYKHQFyAUrAA/o.jpg", "is_closed": false, "url": "https://www.yelp.com/biz/tuttopane-houston?adjust_creative=Q1Qdfk781tT6qWPSSx9wKg&utm_campaign=yelp_api_v3&utm_medium=api_v3_business_search&utm_source=Q1Qdfk781tT6qWPSSx9wKg", "review_count": 80, "categories": [{"alias": "bakeries", "title": "Bakeries"}, {"alias": "venezuelan", "title": "Venezuelan"}], "rating": 4.0, "coordinates": {"latitude": 29.735148, "longitude": -95.629862}, "transactions": ["pickup", "delivery"], "price": "$", "location": {"address1": "13525 Westheimer Rd", "address2": "Ste 2", "address3": "", "city": "Houston", "zip_code": "77082", "country": "US", "state": "TX", "display_address": ["13525 Westheimer Rd", "Ste 2", "Houston, TX 77082"]}, "phone": "+13464105717", "display_phone": "(346) 410-5717", "distance": 11355.345053048424}, {"id": "zHgzt283D3jE6-J9T3WaOg", "alias": "filli-cafe-sugar-land", "name": "Filli Cafe", "image_url": "https://s3-media2.fl.yelpcdn.com/bphoto/ELaZXSkRzGdPeFoQ4zQCCw/o.jpg", "is_closed": false, "url": "https://www.yelp.com/biz/filli-cafe-sugar-land?adjust_creative=Q1Qdfk781tT6qWPSSx9wKg&utm_campaign=yelp_api_v3&utm_medium=api_v3_business_search&utm_source=Q1Qdfk781tT6qWPSSx9wKg", "review_count": 38, "categories": [{"alias": "cafes", "title": "Cafes"}, {"alias": "breakfast_brunch", "title": "Breakfast & Brunch"}, {"alias": "tea", "title": "Tea Rooms"}], "rating": 4.0, "coordinates": {"latitude": 29.64380910259249, "longitude": -95.6531558997844}, "transactions": [], "location": {"address1": "11920 S Texas 6", "address2": "Ste 600", "address3": null, "city": "Sugar Land", "zip_code": "77498", "country": "US", "state": "TX", "display_address": ["11920 S Texas 6", "Ste 600", "Sugar Land, TX 77498"]}, "phone": "+18325321010", "display_phone": "(832) 532-1010", "distance": 7956.531706224086}, {"id": "tw8BozVwpz67sPZ00Sa04g", "alias": "alamo-drafthouse-cinema-lacenterra-katy", "name": "Alamo Drafthouse Cinema LaCenterra", "image_url": "https://s3-media1.fl.yelpcdn.com/bphoto/oNM1WwEaImbhOM-IWPPQ2w/o.jpg", "is_closed": false, "url": "https://www.yelp.com/biz/alamo-drafthouse-cinema-lacenterra-katy?adjust_creative=Q1Qdfk781tT6qWPSSx9wKg&utm_campaign=yelp_api_v3&utm_medium=api_v3_business_search&utm_source=Q1Qdfk781tT6qWPSSx9wKg", "review_count": 197, "categories": [{"alias": "dinnertheater", "title": "Dinner Theater"}], "rating": 3.5, "coordinates": {"latitude": 29.740495, "longitude": -95.77414}, "transactions": [], "price": "$$", "location": {"address1": "2707 Commercial Center Blvd", "address2": "Suite K-100", "address3": null, "city": "Katy", "zip_code": "77494", "country": "US", "state": "TX", "display_address": ["2707 Commercial Center Blvd", "Suite K-100", "Katy, TX 77494"]}, "phone": "+12814926900", "display_phone": "(281) 492-6900", "distance": 8465.939558688196}, {"id": "2bI0bZZV3Cj0u0etxKH6qA", "alias": "sbarro-sugar-land-2", "name": "Sbarro", "image_url": "https://s3-media3.fl.yelpcdn.com/bphoto/3a-6xe27jJSuWrPGAzdjSg/o.jpg", "is_closed": false, "url": "https://www.yelp.com/biz/sbarro-sugar-land-2?adjust_creative=Q1Qdfk781tT6qWPSSx9wKg&utm_campaign=yelp_api_v3&utm_medium=api_v3_business_search&utm_source=Q1Qdfk781tT6qWPSSx9wKg", "review_count": 6, "categories": [{"alias": "pizza", "title": "Pizza"}], "rating": 2.5, "coordinates": {"latitude": 29.591327, "longitude": -95.624874}, "transactions": [], "location": {"address1": "16535 Southwest Fwy", "address2": "", "address3": "", "city": "Sugar Land", "zip_code": "77479", "country": "US", "state": "TX", "display_address": ["16535 Southwest Fwy", "Sugar Land, TX 77479"]}, "phone": "+12812654447", "display_phone": "(281) 265-4447", "distance": 13661.767868220804}, {"id": "Ux_3JZorxtg_rBdNvGMKww", "alias": "pizza-hut-houston-187", "name": "Pizza \u00a0Hut", "image_url": "https://s3-media2.fl.yelpcdn.com/bphoto/j9Hc9BoLbxNNm6sTGdvgsQ/o.jpg", "is_closed": false, "url": "https://www.yelp.com/biz/pizza-hut-houston-187?adjust_creative=Q1Qdfk781tT6qWPSSx9wKg&utm_campaign=yelp_api_v3&utm_medium=api_v3_business_search&utm_source=Q1Qdfk781tT6qWPSSx9wKg", "review_count": 2, "categories": [{"alias": "pizza", "title": "Pizza"}, {"alias": "italian", "title": "Italian"}, {"alias": "chicken_wings", "title": "Chicken Wings"}], "rating": 4.5, "coordinates": {"latitude": 29.7327151648576, "longitude": -95.6273194402456}, "transactions": [], "location": {"address1": "2700 Eldridge Pkwy", "address2": "", "address3": null, "city": "Houston", "zip_code": "77082", "country": "US", "state": "TX", "display_address": ["2700 Eldridge Pkwy", "Houston, TX 77082"]}, "phone": "+12818105251", "display_phone": "(281) 810-5251", "distance": 11407.773854796262}, {"id": "zuC1lr68HVxiqpTbzd_7cA", "alias": "el-rolis-birria-houston", "name": "El Rolis Birria", "image_url": "https://s3-media3.fl.yelpcdn.com/bphoto/T4BVkBd-wvS309SE-TfI0g/o.jpg", "is_closed": false, "url": "https://www.yelp.com/biz/el-rolis-birria-houston?adjust_creative=Q1Qdfk781tT6qWPSSx9wKg&utm_campaign=yelp_api_v3&utm_medium=api_v3_business_search&utm_source=Q1Qdfk781tT6qWPSSx9wKg", "review_count": 135, "categories": [{"alias": "icecream", "title": "Ice Cream & Frozen Yogurt"}, {"alias": "salad", "title": "Salad"}, {"alias": "sandwiches", "title": "Sandwiches"}], "rating": 4.0, "coordinates": {"latitude": 29.7014771947852, "longitude": -95.6497330999995}, "transactions": ["pickup", "delivery"], "price": "$$", "location": {"address1": "14915 Bellaire Blvd", "address2": "", "address3": null, "city": "Houston", "zip_code": "77083", "country": "US", "state": "TX", "display_address": ["14915 Bellaire Blvd", "Houston, TX 77083"]}, "phone": "+18326724126", "display_phone": "(832) 672-4126", "distance": 7890.551677748525}, {"id": "coimIlieBQoIyEHhS3Bl7w", "alias": "market-town-katy", "name": "Market Town", "image_url": "https://s3-media2.fl.yelpcdn.com/bphoto/e7n0TCQD61GNzkW8Gvr6IA/o.jpg", "is_closed": false, "url": "https://www.yelp.com/biz/market-town-katy?adjust_creative=Q1Qdfk781tT6qWPSSx9wKg&utm_campaign=yelp_api_v3&utm_medium=api_v3_business_search&utm_source=Q1Qdfk781tT6qWPSSx9wKg", "review_count": 53, "categories": [{"alias": "grocery", "title": "Grocery"}, {"alias": "bakeries", "title": "Bakeries"}, {"alias": "beer_and_wine", "title": "Beer, Wine & Spirits"}], "rating": 3.0, "coordinates": {"latitude": 29.7483, "longitude": -95.796}, "transactions": ["pickup"], "price": "$$", "location": {"address1": "25600 Westheimer Pkwy", "address2": null, "address3": null, "city": "Katy", "zip_code": "77494", "country": "US", "state": "TX", "display_address": ["25600 Westheimer Pkwy", "Katy, TX 77494"]}, "phone": "+12816654800", "display_phone": "(281) 665-4800", "distance": 10426.285793953944}, {"id": "4fSq0bJDhFqIPE_tofRIhw", "alias": "papa-johns-pizza-katy", "name": "Papa Johns Pizza", "image_url": "https://s3-media4.fl.yelpcdn.com/bphoto/cI1XXfeLQpHY92Zc6EBC0g/o.jpg", "is_closed": false, "url": "https://www.yelp.com/biz/papa-johns-pizza-katy?adjust_creative=Q1Qdfk781tT6qWPSSx9wKg&utm_campaign=yelp_api_v3&utm_medium=api_v3_business_search&utm_source=Q1Qdfk781tT6qWPSSx9wKg", "review_count": 43, "categories": [{"alias": "pizza", "title": "Pizza"}, {"alias": "chicken_wings", "title": "Chicken Wings"}, {"alias": "hotdogs", "title": "Fast Food"}], "rating": 1.5, "coordinates": {"latitude": 29.760484926795858, "longitude": -95.7521072}, "transactions": ["pickup", "delivery"], "price": "$", "location": {"address1": "1514 S Mason Rd", "address2": "", "address3": "", "city": "Katy", "zip_code": "77450", "country": "US", "state": "TX", "display_address": ["1514 S Mason Rd", "Katy, TX 77450"]}, "phone": "+12813950100", "display_phone": "(281) 395-0100", "distance": 9643.614744840923}, {"id": "n06yeT-YB0_j9fvwUJe-1g", "alias": "grand-imperial-chinese-restaurant-katy", "name": "Grand Imperial Chinese Restaurant", "image_url": "https://s3-media1.fl.yelpcdn.com/bphoto/b-fqV1ZZwhXJhEpssU-USQ/o.jpg", "is_closed": false, "url": "https://www.yelp.com/biz/grand-imperial-chinese-restaurant-katy?adjust_creative=Q1Qdfk781tT6qWPSSx9wKg&utm_campaign=yelp_api_v3&utm_medium=api_v3_business_search&utm_source=Q1Qdfk781tT6qWPSSx9wKg", "review_count": 337, "categories": [{"alias": "chinese", "title": "Chinese"}], "rating": 4.0, "coordinates": {"latitude": 29.7145616109078, "longitude": -95.8126873994481}, "transactions": ["pickup", "delivery"], "price": "$$", "location": {"address1": "27131 Cinco Ranch Blvd", "address2": "Ste 500", "address3": "", "city": "Katy", "zip_code": "77494", "country": "US", "state": "TX", "display_address": ["27131 Cinco Ranch Blvd", "Ste 500", "Katy, TX 77494"]}, "phone": "+18324377279", "display_phone": "(832) 437-7279", "distance": 9347.480970591954}, {"id": "QMqyMelkrFz7RXAkOSJ3sQ", "alias": "kolache-bar-energy-corridor-houston-2", "name": "Kolache Bar Energy Corridor", "image_url": "https://s3-media2.fl.yelpcdn.com/bphoto/nNJnkCMeY_Uju4dxQJYoXg/o.jpg", "is_closed": false, "url": "https://www.yelp.com/biz/kolache-bar-energy-corridor-houston-2?adjust_creative=Q1Qdfk781tT6qWPSSx9wKg&utm_campaign=yelp_api_v3&utm_medium=api_v3_business_search&utm_source=Q1Qdfk781tT6qWPSSx9wKg", "review_count": 115, "categories": [{"alias": "bakeries", "title": "Bakeries"}, {"alias": "coffee", "title": "Coffee & Tea"}, {"alias": "donuts", "title": "Donuts"}], "rating": 5.0, "coordinates": {"latitude": 29.76345, "longitude": -95.62476}, "transactions": ["pickup", "delivery"], "price": "$", "location": {"address1": "1275 Eldridge Pkwy", "address2": "Ste 120", "address3": "", "city": "Houston", "zip_code": "77077", "country": "US", "state": "TX", "display_address": ["1275 Eldridge Pkwy", "Ste 120", "Houston, TX 77077"]}, "phone": "+17134716808", "display_phone": "(713) 471-6808", "distance": 13766.535887233975}, {"id": "2wg3Goi6GdodHv40VF-BNg", "alias": "little-caesars-pizza-katy-5", "name": "Little Caesars Pizza", "image_url": "https://s3-media2.fl.yelpcdn.com/bphoto/S9nm-cJRhafQv9LIF6ybKw/o.jpg", "is_closed": false, "url": "https://www.yelp.com/biz/little-caesars-pizza-katy-5?adjust_creative=Q1Qdfk781tT6qWPSSx9wKg&utm_campaign=yelp_api_v3&utm_medium=api_v3_business_search&utm_source=Q1Qdfk781tT6qWPSSx9wKg", "review_count": 37, "categories": [{"alias": "pizza", "title": "Pizza"}], "rating": 2.0, "coordinates": {"latitude": 29.7613720406599, "longitude": -95.7522251476853}, "transactions": [], "price": "$", "location": {"address1": "1420 S Mason Rd", "address2": null, "address3": null, "city": "Katy", "zip_code": "77450", "country": "US", "state": "TX", "display_address": ["1420 S Mason Rd", "Katy, TX 77450"]}, "phone": "+12815744744", "display_phone": "(281) 574-4744", "distance": 9741.854865608719}, {"id": "XPMD3RxWW_4cCLrfbrIynA", "alias": "vfingers-katy", "name": "Vfingers", "image_url": "https://s3-media1.fl.yelpcdn.com/bphoto/A91OsdgAS7lFAOXI5cRciQ/o.jpg", "is_closed": false, "url": "https://www.yelp.com/biz/vfingers-katy?adjust_creative=Q1Qdfk781tT6qWPSSx9wKg&utm_campaign=yelp_api_v3&utm_medium=api_v3_business_search&utm_source=Q1Qdfk781tT6qWPSSx9wKg", "review_count": 6, "categories": [{"alias": "venezuelan", "title": "Venezuelan"}, {"alias": "foodtrucks", "title": "Food Trucks"}, {"alias": "chicken_wings", "title": "Chicken Wings"}], "rating": 4.5, "coordinates": {"latitude": 29.764227221597988, "longitude": -95.752404}, "transactions": ["pickup", "delivery"], "location": {"address1": "1270 Rock Canyon Dr", "address2": null, "address3": "", "city": "Katy", "zip_code": "77450", "country": "US", "state": "TX", "display_address": ["1270 Rock Canyon Dr", "Katy, TX 77450"]}, "phone": "+13465002615", "display_phone": "(346) 500-2615", "distance": 10053.299518467913}, {"id": "AhtJEIcNjv-KEGISGTZszg", "alias": "chilis-richmond-9", "name": "Chili's", "image_url": "https://s3-media4.fl.yelpcdn.com/bphoto/TWtPEIxDXsBkUltyEm3LXA/o.jpg", "is_closed": false, "url": "https://www.yelp.com/biz/chilis-richmond-9?adjust_creative=Q1Qdfk781tT6qWPSSx9wKg&utm_campaign=yelp_api_v3&utm_medium=api_v3_business_search&utm_source=Q1Qdfk781tT6qWPSSx9wKg", "review_count": 38, "categories": [{"alias": "tradamerican", "title": "American (Traditional)"}, {"alias": "bars", "title": "Bars"}, {"alias": "tex-mex", "title": "Tex-Mex"}], "rating": 2.5, "coordinates": {"latitude": 29.658030023334, "longitude": -95.7139239622711}, "transactions": ["pickup", "delivery"], "location": {"address1": "10211 Grand Pkwy", "address2": "", "address3": null, "city": "Richmond", "zip_code": "77407", "country": "US", "state": "TX", "display_address": ["10211 Grand Pkwy", "Richmond, TX 77407"]}, "phone": "+12817469600", "display_phone": "(281) 746-9600", "distance": 2619.3045014936815}, {"id": "S6er64B7vbGPjiix5Be1fw", "alias": "carrabbas-italian-grill-katy-3", "name": "Carrabba's Italian Grill", "image_url": "https://s3-media2.fl.yelpcdn.com/bphoto/ifngp2yfM1lbTL6c0Uf0vg/o.jpg", "is_closed": false, "url": "https://www.yelp.com/biz/carrabbas-italian-grill-katy-3?adjust_creative=Q1Qdfk781tT6qWPSSx9wKg&utm_campaign=yelp_api_v3&utm_medium=api_v3_business_search&utm_source=Q1Qdfk781tT6qWPSSx9wKg", "review_count": 228, "categories": [{"alias": "italian", "title": "Italian"}, {"alias": "seafood", "title": "Seafood"}], "rating": 3.0, "coordinates": {"latitude": 29.713106, "longitude": -95.770491}, "transactions": ["pickup", "delivery"], "price": "$$", "location": {"address1": "6501 Fry Rd", "address2": "", "address3": "", "city": "Katy", "zip_code": "77494", "country": "US", "state": "TX", "display_address": ["6501 Fry Rd", "Katy, TX 77494"]}, "phone": "+12816651320", "display_phone": "(281) 665-1320", "distance": 5883.576853838233}, {"id": "-gJsHb2EuPvQYeaRav9mjg", "alias": "delices-de-maurice-katy-2", "name": "Delices De Maurice", "image_url": "https://s3-media3.fl.yelpcdn.com/bphoto/Y6NGoWANOfKK8yIl35A03g/o.jpg", "is_closed": false, "url": "https://www.yelp.com/biz/delices-de-maurice-katy-2?adjust_creative=Q1Qdfk781tT6qWPSSx9wKg&utm_campaign=yelp_api_v3&utm_medium=api_v3_business_search&utm_source=Q1Qdfk781tT6qWPSSx9wKg", "review_count": 163, "categories": [{"alias": "bakeries", "title": "Bakeries"}, {"alias": "cafes", "title": "Cafes"}], "rating": 4.5, "coordinates": {"latitude": 29.735, "longitude": -95.76356}, "transactions": ["delivery"], "price": "$$", "location": {"address1": "22764 Westheimer Pkwy", "address2": "Ste 670", "address3": null, "city": "Katy", "zip_code": "77450", "country": "US", "state": "TX", "display_address": ["22764 Westheimer Pkwy", "Ste 670", "Katy, TX 77450"]}, "phone": "+18324375723", "display_phone": "(832) 437-5723", "distance": 7409.394386229593}, {"id": "wKUjY6RZ491lMX8ihwcvHg", "alias": "jade-ly-asian-bistro-sugar-land", "name": "Jade Ly Asian Bistro", "image_url": "https://s3-media1.fl.yelpcdn.com/bphoto/AvO-0V6Vr4kdj_fad5Mo5A/o.jpg", "is_closed": false, "url": "https://www.yelp.com/biz/jade-ly-asian-bistro-sugar-land?adjust_creative=Q1Qdfk781tT6qWPSSx9wKg&utm_campaign=yelp_api_v3&utm_medium=api_v3_business_search&utm_source=Q1Qdfk781tT6qWPSSx9wKg", "review_count": 220, "categories": [{"alias": "asianfusion", "title": "Asian Fusion"}, {"alias": "chinese", "title": "Chinese"}, {"alias": "halal", "title": "Halal"}], "rating": 4.0, "coordinates": {"latitude": 29.6012133457418, "longitude": -95.6812083721161}, "transactions": ["pickup", "delivery"], "price": "$$", "location": {"address1": "5022 Hwy 90A E", "address2": "Ste K", "address3": "", "city": "Sugar Land", "zip_code": "77478", "country": "US", "state": "TX", "display_address": ["5022 Hwy 90A E", "Ste K", "Sugar Land, TX 77478"]}, "phone": "+12813133300", "display_phone": "(281) 313-3300", "distance": 9457.543135922135}, {"id": "SgniJ97b6rDnpbgzTZB37w", "alias": "bagel-bread-and-butter-houston", "name": "Bagel Bread and Butter", "image_url": "https://s3-media1.fl.yelpcdn.com/bphoto/PHuEOH7-bIkJKFgb_gV6xQ/o.jpg", "is_closed": false, "url": "https://www.yelp.com/biz/bagel-bread-and-butter-houston?adjust_creative=Q1Qdfk781tT6qWPSSx9wKg&utm_campaign=yelp_api_v3&utm_medium=api_v3_business_search&utm_source=Q1Qdfk781tT6qWPSSx9wKg", "review_count": 6, "categories": [{"alias": "bagels", "title": "Bagels"}], "rating": 5.0, "coordinates": {"latitude": 29.75625, "longitude": -95.64396}, "transactions": [], "location": {"address1": "1585 S Texas 6", "address2": "", "address3": null, "city": "Houston", "zip_code": "77077", "country": "US", "state": "TX", "display_address": ["1585 S Texas 6", "Houston, TX 77077"]}, "phone": "", "display_phone": "", "distance": 11896.156568498312}, {"id": "P77laiEcK4VjLqDIxQsqQA", "alias": "3-women-restaurant-katy", "name": "3 Women Restaurant", "image_url": "https://s3-media2.fl.yelpcdn.com/bphoto/DWrhrq8HJSdoTaZ51E41-Q/o.jpg", "is_closed": false, "url": "https://www.yelp.com/biz/3-women-restaurant-katy?adjust_creative=Q1Qdfk781tT6qWPSSx9wKg&utm_campaign=yelp_api_v3&utm_medium=api_v3_business_search&utm_source=Q1Qdfk781tT6qWPSSx9wKg", "review_count": 13, "categories": [{"alias": "catering", "title": "Caterers"}, {"alias": "mediterranean", "title": "Mediterranean"}, {"alias": "halal", "title": "Halal"}], "rating": 3.0, "coordinates": {"latitude": 29.75070839098384, "longitude": -95.7977183704792}, "transactions": ["pickup", "delivery"], "price": "$$", "location": {"address1": "25600 Westheimer Pkwy", "address2": "Ste 160", "address3": "", "city": "Katy", "zip_code": "77494", "country": "US", "state": "TX", "display_address": ["25600 Westheimer Pkwy", "Ste 160", "Katy, TX 77494"]}, "phone": "+12816654886", "display_phone": "(281) 665-4886", "distance": 10737.972005542017}, {"id": "sj-gWuXFZ_H80dFji-AFmA", "alias": "the-union-kitchen-katy-katy", "name": "The Union Kitchen-Katy", "image_url": "https://s3-media3.fl.yelpcdn.com/bphoto/n2snE1ICgZdPli53XSu3IA/o.jpg", "is_closed": false, "url": "https://www.yelp.com/biz/the-union-kitchen-katy-katy?adjust_creative=Q1Qdfk781tT6qWPSSx9wKg&utm_campaign=yelp_api_v3&utm_medium=api_v3_business_search&utm_source=Q1Qdfk781tT6qWPSSx9wKg", "review_count": 101, "categories": [{"alias": "newamerican", "title": "American (New)"}, {"alias": "seafood", "title": "Seafood"}, {"alias": "breakfast_brunch", "title": "Breakfast & Brunch"}], "rating": 4.0, "coordinates": {"latitude": 29.7370215689718, "longitude": -95.81296593188772}, "transactions": ["pickup", "delivery"], "location": {"address1": "9920 Gaston Rd", "address2": "Ste 100", "address3": "", "city": "Katy", "zip_code": "77494", "country": "US", "state": "TX", "display_address": ["9920 Gaston Rd", "Ste 100", "Katy, TX 77494"]}, "phone": "+12816653007", "display_phone": "(281) 665-3007", "distance": 10727.089894064433}, {"id": "hL96MbIOz0uLQjuSwuSq6Q", "alias": "shogun-japanese-grill-and-sushi-bar-richmond", "name": "Shogun Japanese Grill & Sushi Bar", "image_url": "https://s3-media3.fl.yelpcdn.com/bphoto/XEnUeUi9lq1cJFyqPZPlMA/o.jpg", "is_closed": false, "url": "https://www.yelp.com/biz/shogun-japanese-grill-and-sushi-bar-richmond?adjust_creative=Q1Qdfk781tT6qWPSSx9wKg&utm_campaign=yelp_api_v3&utm_medium=api_v3_business_search&utm_source=Q1Qdfk781tT6qWPSSx9wKg", "review_count": 174, "categories": [{"alias": "sushi", "title": "Sushi Bars"}, {"alias": "teppanyaki", "title": "Teppanyaki"}], "rating": 4.0, "coordinates": {"latitude": 29.66953, "longitude": -95.74809}, "transactions": ["pickup", "delivery"], "price": "$$", "location": {"address1": "7417 W Grand Pkwy S", "address2": "Ste 100", "address3": "", "city": "Richmond", "zip_code": "77407", "country": "US", "state": "TX", "display_address": ["7417 W Grand Pkwy S", "Ste 100", "Richmond, TX 77407"]}, "phone": "+18322222111", "display_phone": "(832) 222-2111", "distance": 2238.8168887235092}, {"id": "jNhz_VZTEzxQ65Aj_cBjcA", "alias": "thai-cuisine-ramen-king-sushi-bar-katy", "name": "Thai Cuisine Ramen King Sushi Bar", "image_url": "https://s3-media1.fl.yelpcdn.com/bphoto/ZdHwxiPBpCwjTJu8cxWg_Q/o.jpg", "is_closed": false, "url": "https://www.yelp.com/biz/thai-cuisine-ramen-king-sushi-bar-katy?adjust_creative=Q1Qdfk781tT6qWPSSx9wKg&utm_campaign=yelp_api_v3&utm_medium=api_v3_business_search&utm_source=Q1Qdfk781tT6qWPSSx9wKg", "review_count": 23, "categories": [{"alias": "sushi", "title": "Sushi Bars"}, {"alias": "thai", "title": "Thai"}, {"alias": "ramen", "title": "Ramen"}], "rating": 4.5, "coordinates": {"latitude": 29.73505887296713, "longitude": -95.7633117}, "transactions": [], "location": {"address1": "22764 Westheimer Pkwy", "address2": "Ste 600", "address3": null, "city": "Katy", "zip_code": "77450", "country": "US", "state": "TX", "display_address": ["22764 Westheimer Pkwy", "Ste 600", "Katy, TX 77450"]}, "phone": "+12813964904", "display_phone": "(281) 396-4904", "distance": 7408.739358041428}, {"id": "22G62gTAbfQPMk654GWjqA", "alias": "trader-joes-katy-3", "name": "Trader Joe's", "image_url": "https://s3-media2.fl.yelpcdn.com/bphoto/8V5BXPoO2gRaYQQzT1Uxkg/o.jpg", "is_closed": false, "url": "https://www.yelp.com/biz/trader-joes-katy-3?adjust_creative=Q1Qdfk781tT6qWPSSx9wKg&utm_campaign=yelp_api_v3&utm_medium=api_v3_business_search&utm_source=Q1Qdfk781tT6qWPSSx9wKg", "review_count": 72, "categories": [{"alias": "grocery", "title": "Grocery"}], "rating": 4.5, "coordinates": {"latitude": 29.7403352, "longitude": -95.7748374}, "transactions": [], "price": "$$", "location": {"address1": "2717 Commercial Center Blvd", "address2": "", "address3": "", "city": "Katy", "zip_code": "77494", "country": "US", "state": "TX", "display_address": ["2717 Commercial Center Blvd", "Katy, TX 77494"]}, "phone": "+12813924200", "display_phone": "(281) 392-4200", "distance": 8488.08668195265}, {"id": "PnklQO7rGaVoBfMeJ_Vheg", "alias": "taco-bell-richmond-37", "name": "Taco Bell", "image_url": "https://s3-media3.fl.yelpcdn.com/bphoto/bDejCYZNg0o5Fv-1fBVm8A/o.jpg", "is_closed": false, "url": "https://www.yelp.com/biz/taco-bell-richmond-37?adjust_creative=Q1Qdfk781tT6qWPSSx9wKg&utm_campaign=yelp_api_v3&utm_medium=api_v3_business_search&utm_source=Q1Qdfk781tT6qWPSSx9wKg", "review_count": 9, "categories": [{"alias": "mexican", "title": "Mexican"}, {"alias": "hotdogs", "title": "Fast Food"}], "rating": 3.0, "coordinates": {"latitude": 29.662776535569957, "longitude": -95.74048630244046}, "transactions": ["delivery"], "location": {"address1": "7967 Grand Parkway", "address2": null, "address3": null, "city": "Richmond", "zip_code": "77407", "country": "US", "state": "TX", "display_address": ["7967 Grand Parkway", "Richmond, TX 77407"]}, "phone": "+12817620501", "display_phone": "(281) 762-0501", "distance": 2069.7201627895897}, {"id": "K_fFtpVPElDyuGt-SQKZgw", "alias": "taco-cabana-richmond", "name": "Taco Cabana", "image_url": "https://s3-media1.fl.yelpcdn.com/bphoto/tGKWqWwz5L7nEhi0WL0gBA/o.jpg", "is_closed": false, "url": "https://www.yelp.com/biz/taco-cabana-richmond?adjust_creative=Q1Qdfk781tT6qWPSSx9wKg&utm_campaign=yelp_api_v3&utm_medium=api_v3_business_search&utm_source=Q1Qdfk781tT6qWPSSx9wKg", "review_count": 94, "categories": [{"alias": "mexican", "title": "Mexican"}], "rating": 1.5, "coordinates": {"latitude": 29.655746, "longitude": -95.711514}, "transactions": ["pickup", "delivery"], "location": {"address1": "10219 W Grand Pkwy S", "address2": "", "address3": null, "city": "Richmond", "zip_code": "77406", "country": "US", "state": "TX", "display_address": ["10219 W Grand Pkwy S", "Richmond, TX 77406"]}, "phone": "+12817256495", "display_phone": "(281) 725-6495", "distance": 2732.881732434231}, {"id": "WfDRj6xTpSkUPbL85VHKLQ", "alias": "local-table-katy", "name": "Local Table", "image_url": "https://s3-media4.fl.yelpcdn.com/bphoto/a5VGphWzhvOTStNPSc5meg/o.jpg", "is_closed": false, "url": "https://www.yelp.com/biz/local-table-katy?adjust_creative=Q1Qdfk781tT6qWPSSx9wKg&utm_campaign=yelp_api_v3&utm_medium=api_v3_business_search&utm_source=Q1Qdfk781tT6qWPSSx9wKg", "review_count": 601, "categories": [{"alias": "mediterranean", "title": "Mediterranean"}, {"alias": "newamerican", "title": "American (New)"}, {"alias": "breakfast_brunch", "title": "Breakfast & Brunch"}], "rating": 4.0, "coordinates": {"latitude": 29.735343109671415, "longitude": -95.76343416928738}, "transactions": ["pickup", "delivery"], "price": "$$", "location": {"address1": "24033 Cinco Ranch Blvd", "address2": "", "address3": "", "city": "Katy", "zip_code": "77494", "country": "US", "state": "TX", "display_address": ["24033 Cinco Ranch Blvd", "Katy, TX 77494"]}, "phone": "+18329136150", "display_phone": "(832) 913-6150", "distance": 7442.127532788576}, {"id": "CUqBq9ywCgjjgkqWcskf2A", "alias": "la-madeleine-houston-32", "name": "la Madeleine", "image_url": "https://s3-media1.fl.yelpcdn.com/bphoto/wJShykNeNs5ljXsAEMlGUQ/o.jpg", "is_closed": false, "url": "https://www.yelp.com/biz/la-madeleine-houston-32?adjust_creative=Q1Qdfk781tT6qWPSSx9wKg&utm_campaign=yelp_api_v3&utm_medium=api_v3_business_search&utm_source=Q1Qdfk781tT6qWPSSx9wKg", "review_count": 115, "categories": [{"alias": "cafes", "title": "Cafes"}, {"alias": "bakeries", "title": "Bakeries"}, {"alias": "breakfast_brunch", "title": "Breakfast & Brunch"}], "rating": 3.5, "coordinates": {"latitude": 29.756638, "longitude": -95.627934}, "transactions": ["pickup", "delivery"], "price": "$$", "location": {"address1": "1560 Eldridge Pkwy", "address2": "", "address3": "", "city": "Houston", "zip_code": "77077", "country": "US", "state": "TX", "display_address": ["1560 Eldridge Pkwy", "Houston, TX 77077"]}, "phone": "+12817604134", "display_phone": "(281) 760-4134", "distance": 13012.48121885522}, {"id": "bzr-TaNYNTPUMeP7T-RQuQ", "alias": "hotbits-indian-restaurant-katy-katy", "name": "HotBits Indian Restaurant - Katy", "image_url": "https://s3-media4.fl.yelpcdn.com/bphoto/1sWIsVn4CfjdW_nzUosDZQ/o.jpg", "is_closed": false, "url": "https://www.yelp.com/biz/hotbits-indian-restaurant-katy-katy?adjust_creative=Q1Qdfk781tT6qWPSSx9wKg&utm_campaign=yelp_api_v3&utm_medium=api_v3_business_search&utm_source=Q1Qdfk781tT6qWPSSx9wKg", "review_count": 114, "categories": [{"alias": "indpak", "title": "Indian"}, {"alias": "halal", "title": "Halal"}, {"alias": "kebab", "title": "Kebab"}], "rating": 4.0, "coordinates": {"latitude": 29.698034, "longitude": -95.814861}, "transactions": ["pickup", "delivery"], "location": {"address1": "25230 FM 1093 Rd", "address2": "Ste 2", "address3": "", "city": "Katy", "zip_code": "77494", "country": "US", "state": "TX", "display_address": ["25230 FM 1093 Rd", "Ste 2", "Katy, TX 77494"]}, "phone": "+18324370559", "display_phone": "(832) 437-0559", "distance": 8879.34731374551}, {"id": "rotlMngkYzZvmWolPDcmYA", "alias": "ashford-pub-houston", "name": "Ashford Pub", "image_url": "https://s3-media3.fl.yelpcdn.com/bphoto/aSK9H4geGPl6yKGVyo-6Uw/o.jpg", "is_closed": false, "url": "https://www.yelp.com/biz/ashford-pub-houston?adjust_creative=Q1Qdfk781tT6qWPSSx9wKg&utm_campaign=yelp_api_v3&utm_medium=api_v3_business_search&utm_source=Q1Qdfk781tT6qWPSSx9wKg", "review_count": 48, "categories": [{"alias": "pubs", "title": "Pubs"}], "rating": 4.0, "coordinates": {"latitude": 29.73733659785579, "longitude": -95.6248529901783}, "transactions": ["delivery"], "price": "$", "location": {"address1": "13308 Westheimer Rd", "address2": "", "address3": "", "city": "Houston", "zip_code": "77077", "country": "US", "state": "TX", "display_address": ["13308 Westheimer Rd", "Houston, TX 77077"]}, "phone": "+12816796112", "display_phone": "(281) 679-6112", "distance": 11891.507014684015}, {"id": "7bLVlFAUtWIqUz82KPEAMg", "alias": "kolache-factory-katy-3", "name": "Kolache Factory", "image_url": "https://s3-media2.fl.yelpcdn.com/bphoto/IQ3KpMtf0C3mk1XxpdEglw/o.jpg", "is_closed": false, "url": "https://www.yelp.com/biz/kolache-factory-katy-3?adjust_creative=Q1Qdfk781tT6qWPSSx9wKg&utm_campaign=yelp_api_v3&utm_medium=api_v3_business_search&utm_source=Q1Qdfk781tT6qWPSSx9wKg", "review_count": 35, "categories": [{"alias": "breakfast_brunch", "title": "Breakfast & Brunch"}, {"alias": "bakeries", "title": "Bakeries"}, {"alias": "coffee", "title": "Coffee & Tea"}], "rating": 4.0, "coordinates": {"latitude": 29.7342418842056, "longitude": -95.770232559056}, "transactions": ["delivery"], "price": "$", "location": {"address1": "23240 Westheimer Pkwy", "address2": "Ste C", "address3": "", "city": "Katy", "zip_code": "77494", "country": "US", "state": "TX", "display_address": ["23240 Westheimer Pkwy", "Ste C", "Katy, TX 77494"]}, "phone": "+12813472253", "display_phone": "(281) 347-2253", "distance": 7677.702124042853}, {"id": "jqpy0rdmrzj25CLOIZ6hHg", "alias": "olive-garden-italian-restaurant-houston-35", "name": "Olive Garden Italian Restaurant", "image_url": "https://s3-media1.fl.yelpcdn.com/bphoto/2Nokm3yFl-xxDSfmNMRw_Q/o.jpg", "is_closed": false, "url": "https://www.yelp.com/biz/olive-garden-italian-restaurant-houston-35?adjust_creative=Q1Qdfk781tT6qWPSSx9wKg&utm_campaign=yelp_api_v3&utm_medium=api_v3_business_search&utm_source=Q1Qdfk781tT6qWPSSx9wKg", "review_count": 151, "categories": [{"alias": "italian", "title": "Italian"}, {"alias": "salad", "title": "Salad"}, {"alias": "soup", "title": "Soup"}], "rating": 2.0, "coordinates": {"latitude": 29.730296, "longitude": -95.645013}, "transactions": [], "price": "$$", "location": {"address1": "2750 Hwy 6", "address2": "", "address3": "West Oaks Mall", "city": "Houston", "zip_code": "77082", "country": "US", "state": "TX", "display_address": ["2750 Hwy 6", "West Oaks Mall", "Houston, TX 77082"]}, "phone": "+12815318829", "display_phone": "(281) 531-8829", "distance": 9854.650047811263}, {"id": "Lhe_9K7Dx6I_jdG-A6kiJg", "alias": "karma-kolache-and-dessert-katy-2", "name": "Karma Kolache & Dessert", "image_url": "https://s3-media2.fl.yelpcdn.com/bphoto/qZQMmBJqyMrqbN7aCALuyw/o.jpg", "is_closed": false, "url": "https://www.yelp.com/biz/karma-kolache-and-dessert-katy-2?adjust_creative=Q1Qdfk781tT6qWPSSx9wKg&utm_campaign=yelp_api_v3&utm_medium=api_v3_business_search&utm_source=Q1Qdfk781tT6qWPSSx9wKg", "review_count": 67, "categories": [{"alias": "desserts", "title": "Desserts"}, {"alias": "bakeries", "title": "Bakeries"}], "rating": 4.5, "coordinates": {"latitude": 29.74454883, "longitude": -95.76926683}, "transactions": ["delivery"], "price": "$$", "location": {"address1": "23108 Cinco Ranch Blvd", "address2": null, "address3": "", "city": "Katy", "zip_code": "77494", "country": "US", "state": "TX", "display_address": ["23108 Cinco Ranch Blvd", "Katy, TX 77494"]}, "phone": "+12813927877", "display_phone": "(281) 392-7877", "distance": 8610.236949175507}, {"id": "txFr13Od9OWdtDMujnQzIQ", "alias": "hasta-la-pasta-katy-3", "name": "Hasta La Pasta", "image_url": "https://s3-media4.fl.yelpcdn.com/bphoto/zCfETIrzIKUZSBfeCnxTiA/o.jpg", "is_closed": false, "url": "https://www.yelp.com/biz/hasta-la-pasta-katy-3?adjust_creative=Q1Qdfk781tT6qWPSSx9wKg&utm_campaign=yelp_api_v3&utm_medium=api_v3_business_search&utm_source=Q1Qdfk781tT6qWPSSx9wKg", "review_count": 218, "categories": [{"alias": "italian", "title": "Italian"}], "rating": 3.5, "coordinates": {"latitude": 29.7588824807474, "longitude": -95.7778655818004}, "transactions": ["pickup", "delivery"], "price": "$$", "location": {"address1": "1450 W Grand Pkwy S", "address2": "Ste E", "address3": "", "city": "Katy", "zip_code": "77494", "country": "US", "state": "TX", "display_address": ["1450 W Grand Pkwy S", "Ste E", "Katy, TX 77494"]}, "phone": "+12813920045", "display_phone": "(281) 392-0045", "distance": 10407.075088723883}, {"id": "jwPLa3raTxQJ-UP3PB7itA", "alias": "buffet-king-houston", "name": "Buffet King", "image_url": "https://s3-media1.fl.yelpcdn.com/bphoto/LB-Ebt_sS9m3QlJVF9jmJA/o.jpg", "is_closed": false, "url": "https://www.yelp.com/biz/buffet-king-houston?adjust_creative=Q1Qdfk781tT6qWPSSx9wKg&utm_campaign=yelp_api_v3&utm_medium=api_v3_business_search&utm_source=Q1Qdfk781tT6qWPSSx9wKg", "review_count": 175, "categories": [{"alias": "buffets", "title": "Buffets"}], "rating": 2.5, "coordinates": {"latitude": 29.698812, "longitude": -95.643117}, "transactions": [], "price": "$$", "location": {"address1": "7211 Hwy 6 S", "address2": "", "address3": "", "city": "Houston", "zip_code": "77083", "country": "US", "state": "TX", "display_address": ["7211 Hwy 6 S", "Houston, TX 77083"]}, "phone": "+12815641888", "display_phone": "(281) 564-1888", "distance": 8401.056611293283}, {"id": "H39U3CfZsKLTZmxvhAL3kA", "alias": "taqueria-el-corralito-houston-2", "name": "Taqueria El Corralito", "image_url": "https://s3-media1.fl.yelpcdn.com/bphoto/bIUxZLMuNr8ky0y9r7aDTQ/o.jpg", "is_closed": false, "url": "https://www.yelp.com/biz/taqueria-el-corralito-houston-2?adjust_creative=Q1Qdfk781tT6qWPSSx9wKg&utm_campaign=yelp_api_v3&utm_medium=api_v3_business_search&utm_source=Q1Qdfk781tT6qWPSSx9wKg", "review_count": 8, "categories": [{"alias": "mexican", "title": "Mexican"}, {"alias": "breakfast_brunch", "title": "Breakfast & Brunch"}, {"alias": "salvadoran", "title": "Salvadoran"}], "rating": 3.5, "coordinates": {"latitude": 29.6995616127274, "longitude": -95.6651987175378}, "transactions": ["pickup", "delivery"], "location": {"address1": "15825 Bellaire Blvd", "address2": "Ste B", "address3": null, "city": "Houston", "zip_code": "77083", "country": "US", "state": "TX", "display_address": ["15825 Bellaire Blvd", "Ste B", "Houston, TX 77083"]}, "phone": "+13462195755", "display_phone": "(346) 219-5755", "distance": 6424.338751002501}, {"id": "YaIrFjTSTf7caDvRoQQdKw", "alias": "taco-bell-sugar-land-4", "name": "Taco Bell", "image_url": "https://s3-media2.fl.yelpcdn.com/bphoto/pOR44zGh0SnIppSNeiDm2A/o.jpg", "is_closed": false, "url": "https://www.yelp.com/biz/taco-bell-sugar-land-4?adjust_creative=Q1Qdfk781tT6qWPSSx9wKg&utm_campaign=yelp_api_v3&utm_medium=api_v3_business_search&utm_source=Q1Qdfk781tT6qWPSSx9wKg", "review_count": 40, "categories": [{"alias": "hotdogs", "title": "Fast Food"}, {"alias": "mexican", "title": "Mexican"}], "rating": 3.5, "coordinates": {"latitude": 29.64445, "longitude": -95.6516}, "transactions": ["delivery"], "price": "$", "location": {"address1": "11719 Hwy 6 South", "address2": "", "address3": "", "city": "Sugar Land", "zip_code": "77498", "country": "US", "state": "TX", "display_address": ["11719 Hwy 6 South", "Sugar Land, TX 77498"]}, "phone": "+12814944684", "display_phone": "(281) 494-4684", "distance": 8058.339940604792}, {"id": "5OmDFdvp1aeWkl0uF6YL2Q", "alias": "indian-summer-sugar-land", "name": "Indian Summer", "image_url": "https://s3-media1.fl.yelpcdn.com/bphoto/wU4ELerJ7trjBuzLgdvZ_A/o.jpg", "is_closed": false, "url": "https://www.yelp.com/biz/indian-summer-sugar-land?adjust_creative=Q1Qdfk781tT6qWPSSx9wKg&utm_campaign=yelp_api_v3&utm_medium=api_v3_business_search&utm_source=Q1Qdfk781tT6qWPSSx9wKg", "review_count": 32, "categories": [{"alias": "indpak", "title": "Indian"}], "rating": 4.0, "coordinates": {"latitude": 29.598237, "longitude": -95.627678}, "transactions": ["pickup", "delivery"], "location": {"address1": "16260 Kensington Dr", "address2": null, "address3": "", "city": "Sugar Land", "zip_code": "77479", "country": "US", "state": "TX", "display_address": ["16260 Kensington Dr", "Sugar Land, TX 77479"]}, "phone": "+12814913672", "display_phone": "(281) 491-3672", "distance": 12917.567134782927}, {"id": "zSFYg-b4BpQo6_6EVT7AIw", "alias": "potbelly-sandwich-shop-katy", "name": "Potbelly Sandwich Shop", "image_url": "https://s3-media3.fl.yelpcdn.com/bphoto/-SroXTIupyn8W_MQ8W1fuA/o.jpg", "is_closed": false, "url": "https://www.yelp.com/biz/potbelly-sandwich-shop-katy?adjust_creative=Q1Qdfk781tT6qWPSSx9wKg&utm_campaign=yelp_api_v3&utm_medium=api_v3_business_search&utm_source=Q1Qdfk781tT6qWPSSx9wKg", "review_count": 59, "categories": [{"alias": "sandwiches", "title": "Sandwiches"}, {"alias": "hotdogs", "title": "Fast Food"}, {"alias": "salad", "title": "Salad"}], "rating": 4.0, "coordinates": {"latitude": 29.74231713303549, "longitude": -95.7781706611635}, "transactions": ["pickup", "delivery"], "price": "$", "location": {"address1": "23701 Cinco Ranch Blvd", "address2": "Ste 180", "address3": "", "city": "Katy", "zip_code": "77494", "country": "US", "state": "TX", "display_address": ["23701 Cinco Ranch Blvd", "Ste 180", "Katy, TX 77494"]}, "phone": "+12813953482", "display_phone": "(281) 395-3482", "distance": 8850.823916841484}, {"id": "mqxDKNX8sv9P4OoerGt4yw", "alias": "hyatt-place-houston-sugar-land-sugar-land-2", "name": "Hyatt Place Houston/Sugar Land", "image_url": "https://s3-media1.fl.yelpcdn.com/bphoto/GkW6_muizSzOzQjkn5jiDw/o.jpg", "is_closed": false, "url": "https://www.yelp.com/biz/hyatt-place-houston-sugar-land-sugar-land-2?adjust_creative=Q1Qdfk781tT6qWPSSx9wKg&utm_campaign=yelp_api_v3&utm_medium=api_v3_business_search&utm_source=Q1Qdfk781tT6qWPSSx9wKg", "review_count": 92, "categories": [{"alias": "hotels", "title": "Hotels"}], "rating": 3.5, "coordinates": {"latitude": 29.60251, "longitude": -95.62406}, "transactions": [], "price": "$$", "location": {"address1": "16730 Creek Bend Dr", "address2": "", "address3": "", "city": "Sugar Land", "zip_code": "77478", "country": "US", "state": "TX", "display_address": ["16730 Creek Bend Dr", "Sugar Land, TX 77478"]}, "phone": "+12814910300", "display_phone": "(281) 491-0300", "distance": 12871.731515399166}, {"id": "UVXoox4s4yQ8oMrAjykZ3w", "alias": "taco-bell-richmond-15", "name": "Taco Bell", "image_url": "https://s3-media1.fl.yelpcdn.com/bphoto/JkjGQj3LUI8yN3tqAzVTBA/o.jpg", "is_closed": false, "url": "https://www.yelp.com/biz/taco-bell-richmond-15?adjust_creative=Q1Qdfk781tT6qWPSSx9wKg&utm_campaign=yelp_api_v3&utm_medium=api_v3_business_search&utm_source=Q1Qdfk781tT6qWPSSx9wKg", "review_count": 32, "categories": [{"alias": "hotdogs", "title": "Fast Food"}, {"alias": "mexican", "title": "Mexican"}], "rating": 2.5, "coordinates": {"latitude": 29.69065, "longitude": -95.77121}, "transactions": ["pickup", "delivery"], "price": "$", "location": {"address1": "5640 W Grand Parkway S", "address2": "", "address3": "", "city": "Richmond", "zip_code": "77406", "country": "US", "state": "TX", "display_address": ["5640 W Grand Parkway S", "Richmond, TX 77406"]}, "phone": "+12812325738", "display_phone": "(281) 232-5738", "distance": 4608.891115083741}, {"id": "RiszHS2tF4WVQRVqIQ1nqA", "alias": "citrus-blue-healthy-foods-katy-2", "name": "Citrus Blue Healthy Foods", "image_url": "https://s3-media1.fl.yelpcdn.com/bphoto/1SvNIeA0j5qhELFJvakvsg/o.jpg", "is_closed": false, "url": "https://www.yelp.com/biz/citrus-blue-healthy-foods-katy-2?adjust_creative=Q1Qdfk781tT6qWPSSx9wKg&utm_campaign=yelp_api_v3&utm_medium=api_v3_business_search&utm_source=Q1Qdfk781tT6qWPSSx9wKg", "review_count": 13, "categories": [{"alias": "healthmarkets", "title": "Health Markets"}], "rating": 5.0, "coordinates": {"latitude": 29.761061, "longitude": -95.774973}, "transactions": [], "price": "$$", "location": {"address1": "1315 W Grand Pkwy S", "address2": "Ste 114", "address3": "", "city": "Katy", "zip_code": "77494", "country": "US", "state": "TX", "display_address": ["1315 W Grand Pkwy S", "Ste 114", "Katy, TX 77494"]}, "phone": "+18324372229", "display_phone": "(832) 437-2229", "distance": 10492.244682886982}, {"id": "2ez2qyT2X7AyOpS0ZRt1Qw", "alias": "sushi-9-katy", "name": "Sushi 9", "image_url": "https://s3-media1.fl.yelpcdn.com/bphoto/C8n7BnTpOQfcppkkGqo2Dw/o.jpg", "is_closed": false, "url": "https://www.yelp.com/biz/sushi-9-katy?adjust_creative=Q1Qdfk781tT6qWPSSx9wKg&utm_campaign=yelp_api_v3&utm_medium=api_v3_business_search&utm_source=Q1Qdfk781tT6qWPSSx9wKg", "review_count": 499, "categories": [{"alias": "sushi", "title": "Sushi Bars"}, {"alias": "japanese", "title": "Japanese"}], "rating": 4.0, "coordinates": {"latitude": 29.755131696430908, "longitude": -95.75231424110446}, "transactions": ["delivery"], "price": "$$", "location": {"address1": "1830 S Mason Rd", "address2": "Ste 150", "address3": "", "city": "Katy", "zip_code": "77450", "country": "US", "state": "TX", "display_address": ["1830 S Mason Rd", "Ste 150", "Katy, TX 77450"]}, "phone": "+12813918898", "display_phone": "(281) 391-8898", "distance": 9075.458959087995}, {"id": "lHhfm1Tl08AV9jJHY8xeOw", "alias": "alafande-mediterranean-grill-and-cafe-katy", "name": "Alafande Mediterranean Grill and Cafe", "image_url": "https://s3-media4.fl.yelpcdn.com/bphoto/LVvMDJ4_8pn-8OhLRsZInw/o.jpg", "is_closed": false, "url": "https://www.yelp.com/biz/alafande-mediterranean-grill-and-cafe-katy?adjust_creative=Q1Qdfk781tT6qWPSSx9wKg&utm_campaign=yelp_api_v3&utm_medium=api_v3_business_search&utm_source=Q1Qdfk781tT6qWPSSx9wKg", "review_count": 15, "categories": [{"alias": "mediterranean", "title": "Mediterranean"}, {"alias": "cafes", "title": "Cafes"}], "rating": 2.5, "coordinates": {"latitude": 29.756652126537475, "longitude": -95.7520925894397}, "transactions": ["pickup", "delivery"], "location": {"address1": "1660 S Mason Rd", "address2": null, "address3": "", "city": "Katy", "zip_code": "77450", "country": "US", "state": "TX", "display_address": ["1660 S Mason Rd", "Katy, TX 77450"]}, "phone": "+12816658551", "display_phone": "(281) 665-8551", "distance": 9232.21709678988}, {"id": "oiqZdkv2K2vgYK3CXJrlvw", "alias": "nirmanz-food-boutique-sugar-land", "name": "Nirmanz Food Boutique", "image_url": "https://s3-media2.fl.yelpcdn.com/bphoto/OWZmB6c9Ic9CQQqPqk0nfA/o.jpg", "is_closed": false, "url": "https://www.yelp.com/biz/nirmanz-food-boutique-sugar-land?adjust_creative=Q1Qdfk781tT6qWPSSx9wKg&utm_campaign=yelp_api_v3&utm_medium=api_v3_business_search&utm_source=Q1Qdfk781tT6qWPSSx9wKg", "review_count": 323, "categories": [{"alias": "indpak", "title": "Indian"}], "rating": 4.0, "coordinates": {"latitude": 29.596944, "longitude": -95.63028}, "transactions": ["pickup", "delivery"], "price": "$$", "location": {"address1": "16338 Kensington Dr", "address2": "Ste 160", "address3": null, "city": "Sugar Land", "zip_code": "77479", "country": "US", "state": "TX", "display_address": ["16338 Kensington Dr", "Ste 160", "Sugar Land, TX 77479"]}, "phone": "+18325320699", "display_phone": "(832) 532-0699", "distance": 12834.752980176865}, {"id": "ZFU4MLeddJmfveQJsTdwXQ", "alias": "the-cheesecake-factory-sugar-land-sugar-land-8", "name": "The Cheesecake Factory - Sugar Land", "image_url": "https://s3-media3.fl.yelpcdn.com/bphoto/pDam4TxB256O0q8W6kzHwg/o.jpg", "is_closed": false, "url": "https://www.yelp.com/biz/the-cheesecake-factory-sugar-land-sugar-land-8?adjust_creative=Q1Qdfk781tT6qWPSSx9wKg&utm_campaign=yelp_api_v3&utm_medium=api_v3_business_search&utm_source=Q1Qdfk781tT6qWPSSx9wKg", "review_count": 632, "categories": [{"alias": "desserts", "title": "Desserts"}, {"alias": "newamerican", "title": "American (New)"}], "rating": 2.5, "coordinates": {"latitude": 29.592937, "longitude": -95.6237405}, "transactions": [], "price": "$$", "location": {"address1": "16535 Sw Fwy", "address2": "", "address3": "", "city": "Sugar Land", "zip_code": "77479", "country": "US", "state": "TX", "display_address": ["16535 Sw Fwy", "Sugar Land, TX 77479"]}, "phone": "+12813139500", "display_phone": "(281) 313-9500", "distance": 13600.929593313767}, {"id": "q39sFla7OUOFUsEEr9VheA", "alias": "the-international-office-sports-bar-and-grill-houston-2", "name": "The International Office Sports Bar & Grill", "image_url": "https://s3-media2.fl.yelpcdn.com/bphoto/tDlWDi8HNqo9HwOLGzChZw/o.jpg", "is_closed": false, "url": "https://www.yelp.com/biz/the-international-office-sports-bar-and-grill-houston-2?adjust_creative=Q1Qdfk781tT6qWPSSx9wKg&utm_campaign=yelp_api_v3&utm_medium=api_v3_business_search&utm_source=Q1Qdfk781tT6qWPSSx9wKg", "review_count": 15, "categories": [{"alias": "sportsbars", "title": "Sports Bars"}, {"alias": "tex-mex", "title": "Tex-Mex"}], "rating": 3.5, "coordinates": {"latitude": 29.6896177, "longitude": -95.6252206}, "transactions": ["pickup", "delivery"], "price": "$", "location": {"address1": "13700 Beechnut St", "address2": null, "address3": "", "city": "Houston", "zip_code": "77083", "country": "US", "state": "TX", "display_address": ["13700 Beechnut St", "Houston, TX 77083"]}, "phone": "+12815301302", "display_phone": "(281) 530-1302", "distance": 9867.67653829673}, {"id": "cDVEYZbWgZlgVXEvpTcxfQ", "alias": "chilis-katy", "name": "Chili's", "image_url": "https://s3-media1.fl.yelpcdn.com/bphoto/ozHd3-dKJ_PipBIQPAVvbA/o.jpg", "is_closed": false, "url": "https://www.yelp.com/biz/chilis-katy?adjust_creative=Q1Qdfk781tT6qWPSSx9wKg&utm_campaign=yelp_api_v3&utm_medium=api_v3_business_search&utm_source=Q1Qdfk781tT6qWPSSx9wKg", "review_count": 124, "categories": [{"alias": "bars", "title": "Bars"}, {"alias": "tex-mex", "title": "Tex-Mex"}, {"alias": "tradamerican", "title": "American (Traditional)"}], "rating": 2.0, "coordinates": {"latitude": 29.732558, "longitude": -95.774032}, "transactions": ["pickup", "delivery"], "price": "$$", "location": {"address1": "3130 W Grand Pkwy S", "address2": null, "address3": null, "city": "Katy", "zip_code": "77494", "country": "US", "state": "TX", "display_address": ["3130 W Grand Pkwy S", "Katy, TX 77494"]}, "phone": "+12815743220", "display_phone": "(281) 574-3220", "distance": 7735.435555274826}, {"id": "jjMVh3SlEcRB2q8jhICVjg", "alias": "whole-foods-market-katy", "name": "Whole Foods Market", "image_url": "https://s3-media3.fl.yelpcdn.com/bphoto/hNiG64wbM3yDjv81Wn7ADQ/o.jpg", "is_closed": false, "url": "https://www.yelp.com/biz/whole-foods-market-katy?adjust_creative=Q1Qdfk781tT6qWPSSx9wKg&utm_campaign=yelp_api_v3&utm_medium=api_v3_business_search&utm_source=Q1Qdfk781tT6qWPSSx9wKg", "review_count": 116, "categories": [{"alias": "grocery", "title": "Grocery"}, {"alias": "healthmarkets", "title": "Health Markets"}, {"alias": "organic_stores", "title": "Organic Stores"}], "rating": 3.0, "coordinates": {"latitude": 29.712195, "longitude": -95.771282}, "transactions": [], "price": "$$$", "location": {"address1": "6601 S Fry Rd", "address2": "", "address3": "", "city": "Katy", "zip_code": "77494", "country": "US", "state": "TX", "display_address": ["6601 S Fry Rd", "Katy, TX 77494"]}, "phone": "+12817695670", "display_phone": "(281) 769-5670", "distance": 5870.719692917281}, {"id": "TDKFwBGhrc7sHkCI7ENgAw", "alias": "sweet-paris-cr\u00eaperie-and-caf\u00e9-katy-3", "name": "Sweet Paris Cr\u00eaperie & Caf\u00e9", "image_url": "https://s3-media2.fl.yelpcdn.com/bphoto/6UllPmEqTMaoVcYwajQjlg/o.jpg", "is_closed": false, "url": "https://www.yelp.com/biz/sweet-paris-cr%C3%AAperie-and-caf%C3%A9-katy-3?adjust_creative=Q1Qdfk781tT6qWPSSx9wKg&utm_campaign=yelp_api_v3&utm_medium=api_v3_business_search&utm_source=Q1Qdfk781tT6qWPSSx9wKg", "review_count": 161, "categories": [{"alias": "creperies", "title": "Creperies"}, {"alias": "cafes", "title": "Cafes"}, {"alias": "sandwiches", "title": "Sandwiches"}], "rating": 4.0, "coordinates": {"latitude": 29.7419149326783, "longitude": -95.774989716799}, "transactions": ["pickup", "delivery"], "price": "$$", "location": {"address1": "23501 Cinco Ranch Blvd", "address2": "Ste S120", "address3": "", "city": "Katy", "zip_code": "77494", "country": "US", "state": "TX", "display_address": ["23501 Cinco Ranch Blvd", "Ste S120", "Katy, TX 77494"]}, "phone": "+12813945995", "display_phone": "(281) 394-5995", "distance": 8643.024001750357}, {"id": "LEVuN5ZnJW2F6fJw65mt1A", "alias": "olive-garden-italian-restaurant-sugar-land-4", "name": "Olive Garden Italian Restaurant", "image_url": "https://s3-media3.fl.yelpcdn.com/bphoto/HYnnnLilIx4e--GtGavfAg/o.jpg", "is_closed": false, "url": "https://www.yelp.com/biz/olive-garden-italian-restaurant-sugar-land-4?adjust_creative=Q1Qdfk781tT6qWPSSx9wKg&utm_campaign=yelp_api_v3&utm_medium=api_v3_business_search&utm_source=Q1Qdfk781tT6qWPSSx9wKg", "review_count": 218, "categories": [{"alias": "italian", "title": "Italian"}, {"alias": "salad", "title": "Salad"}, {"alias": "soup", "title": "Soup"}], "rating": 2.5, "coordinates": {"latitude": 29.58756349, "longitude": -95.63400988037397}, "transactions": [], "price": "$$", "location": {"address1": "5005 Sweetwater Blvd", "address2": "", "address3": "", "city": "Sugar Land", "zip_code": "77479", "country": "US", "state": "TX", "display_address": ["5005 Sweetwater Blvd", "Sugar Land, TX 77479"]}, "phone": "+12814910478", "display_phone": "(281) 491-0478", "distance": 13333.799523593934}, {"id": "migfxgb0N7CHLiDrmG1E4w", "alias": "taco-bell-sugar-land-6", "name": "Taco Bell", "image_url": "https://s3-media3.fl.yelpcdn.com/bphoto/M-PlVIXWm3oceP3CDs-JwQ/o.jpg", "is_closed": false, "url": "https://www.yelp.com/biz/taco-bell-sugar-land-6?adjust_creative=Q1Qdfk781tT6qWPSSx9wKg&utm_campaign=yelp_api_v3&utm_medium=api_v3_business_search&utm_source=Q1Qdfk781tT6qWPSSx9wKg", "review_count": 17, "categories": [{"alias": "hotdogs", "title": "Fast Food"}, {"alias": "mexican", "title": "Mexican"}], "rating": 1.5, "coordinates": {"latitude": 29.60141, "longitude": -95.68257}, "transactions": ["pickup", "delivery"], "price": "$", "location": {"address1": "4950 Highway 90A", "address2": null, "address3": null, "city": "Sugar Land", "zip_code": "77498", "country": "US", "state": "TX", "display_address": ["4950 Highway 90A", "Sugar Land, TX 77498"]}, "phone": "+12814945321", "display_phone": "(281) 494-5321", "distance": 9378.128111539214}, {"id": "pY4IGTYYFAvH65kO_KLH1Q", "alias": "taco-cabana-sugar-land", "name": "Taco Cabana", "image_url": "https://s3-media3.fl.yelpcdn.com/bphoto/2CfmjnNPlkEhJ1a-IgKcIA/o.jpg", "is_closed": false, "url": "https://www.yelp.com/biz/taco-cabana-sugar-land?adjust_creative=Q1Qdfk781tT6qWPSSx9wKg&utm_campaign=yelp_api_v3&utm_medium=api_v3_business_search&utm_source=Q1Qdfk781tT6qWPSSx9wKg", "review_count": 140, "categories": [{"alias": "mexican", "title": "Mexican"}], "rating": 2.0, "coordinates": {"latitude": 29.59097, "longitude": -95.63535}, "transactions": ["pickup", "delivery"], "price": "$", "location": {"address1": "16770 Southwest Freeway", "address2": "", "address3": "", "city": "Sugar Land", "zip_code": "77479", "country": "US", "state": "TX", "display_address": ["16770 Southwest Freeway", "Sugar Land, TX 77479"]}, "phone": "+12819809683", "display_phone": "(281) 980-9683", "distance": 12965.108473900382}, {"id": "b1-JbcGlen3MNoTpO625Kg", "alias": "schlotzskys-houston-7", "name": "Schlotzsky's", "image_url": "https://s3-media3.fl.yelpcdn.com/bphoto/NByhrIKGGgbikyRoRjW2YA/o.jpg", "is_closed": false, "url": "https://www.yelp.com/biz/schlotzskys-houston-7?adjust_creative=Q1Qdfk781tT6qWPSSx9wKg&utm_campaign=yelp_api_v3&utm_medium=api_v3_business_search&utm_source=Q1Qdfk781tT6qWPSSx9wKg", "review_count": 21, "categories": [{"alias": "sandwiches", "title": "Sandwiches"}, {"alias": "delis", "title": "Delis"}, {"alias": "catering", "title": "Caterers"}], "rating": 2.5, "coordinates": {"latitude": 29.682428663414615, "longitude": -95.6427965}, "transactions": ["pickup", "delivery"], "price": "$", "location": {"address1": "8751 Highway 6 S", "address2": "Ste Z", "address3": "", "city": "Houston", "zip_code": "77083", "country": "US", "state": "TX", "display_address": ["8751 Highway 6 S", "Ste Z", "Houston, TX 77083"]}, "phone": "+12815302345", "display_phone": "(281) 530-2345", "distance": 8090.1496018946345}, {"id": "WOaGhYt8QXdCrVUicBPUBg", "alias": "family-kitchen-chevron-sugar-land", "name": "Family Kitchen - Chevron", "image_url": "https://s3-media4.fl.yelpcdn.com/bphoto/xXo6zeddneqy-hR3HtTJbg/o.jpg", "is_closed": false, "url": "https://www.yelp.com/biz/family-kitchen-chevron-sugar-land?adjust_creative=Q1Qdfk781tT6qWPSSx9wKg&utm_campaign=yelp_api_v3&utm_medium=api_v3_business_search&utm_source=Q1Qdfk781tT6qWPSSx9wKg", "review_count": 22, "categories": [{"alias": "pakistani", "title": "Pakistani"}, {"alias": "indpak", "title": "Indian"}, {"alias": "spanish", "title": "Spanish"}], "rating": 3.5, "coordinates": {"latitude": 29.64399, "longitude": -95.652199}, "transactions": ["pickup", "delivery"], "price": "$", "location": {"address1": "11836 S Hwy 6", "address2": "", "address3": "", "city": "Sugar Land", "zip_code": "77498", "country": "US", "state": "TX", "display_address": ["11836 S Hwy 6", "Sugar Land, TX 77498"]}, "phone": "+12815641299", "display_phone": "(281) 564-1299", "distance": 8029.921886713125}, {"id": "LH_lClx0dohNQBJOx0PEYg", "alias": "westco-doughnuts-sugar-land", "name": "Westco Doughnuts", "image_url": "https://s3-media2.fl.yelpcdn.com/bphoto/1onFRh5-JQfanMoPdKyxEA/o.jpg", "is_closed": false, "url": "https://www.yelp.com/biz/westco-doughnuts-sugar-land?adjust_creative=Q1Qdfk781tT6qWPSSx9wKg&utm_campaign=yelp_api_v3&utm_medium=api_v3_business_search&utm_source=Q1Qdfk781tT6qWPSSx9wKg", "review_count": 44, "categories": [{"alias": "donuts", "title": "Donuts"}, {"alias": "breakfast_brunch", "title": "Breakfast & Brunch"}], "rating": 4.5, "coordinates": {"latitude": 29.6013333, "longitude": -95.6812177}, "transactions": ["pickup", "delivery"], "price": "$", "location": {"address1": "5022 Hwy 90A", "address2": "", "address3": "", "city": "Sugar Land", "zip_code": "77478", "country": "US", "state": "TX", "display_address": ["5022 Hwy 90A", "Sugar Land, TX 77478"]}, "phone": "+12812779389", "display_phone": "(281) 277-9389", "distance": 9445.288964195108}, {"id": "P3uUCKwTeEVgCGumDhYbOg", "alias": "red-lobster-houston-2", "name": "Red Lobster", "image_url": "https://s3-media1.fl.yelpcdn.com/bphoto/61wWMDoqUe1zSACrVzDGkA/o.jpg", "is_closed": false, "url": "https://www.yelp.com/biz/red-lobster-houston-2?adjust_creative=Q1Qdfk781tT6qWPSSx9wKg&utm_campaign=yelp_api_v3&utm_medium=api_v3_business_search&utm_source=Q1Qdfk781tT6qWPSSx9wKg", "review_count": 142, "categories": [{"alias": "seafood", "title": "Seafood"}, {"alias": "tradamerican", "title": "American (Traditional)"}], "rating": 2.5, "coordinates": {"latitude": 29.729817, "longitude": -95.6450107}, "transactions": ["pickup", "delivery"], "price": "$$", "location": {"address1": "2760 Hwy 6", "address2": "", "address3": "West Oaks Mall", "city": "Houston", "zip_code": "77082", "country": "US", "state": "TX", "display_address": ["2760 Hwy 6", "West Oaks Mall", "Houston, TX 77082"]}, "phone": "+12815979015", "display_phone": "(281) 597-9015", "distance": 9822.728825615515}, {"id": "9M7vNChaVSBM-Q_KsUZl8A", "alias": "taco-bell-houston-40", "name": "Taco Bell", "image_url": "https://s3-media1.fl.yelpcdn.com/bphoto/SnuManazbthM9p1mPEM5mA/o.jpg", "is_closed": false, "url": "https://www.yelp.com/biz/taco-bell-houston-40?adjust_creative=Q1Qdfk781tT6qWPSSx9wKg&utm_campaign=yelp_api_v3&utm_medium=api_v3_business_search&utm_source=Q1Qdfk781tT6qWPSSx9wKg", "review_count": 16, "categories": [{"alias": "mexican", "title": "Mexican"}, {"alias": "hotdogs", "title": "Fast Food"}], "rating": 4.0, "coordinates": {"latitude": 29.736466, "longitude": -95.644372}, "transactions": ["delivery"], "price": "$", "location": {"address1": "2475 South Highway 6", "address2": null, "address3": null, "city": "Houston", "zip_code": "77077", "country": "US", "state": "TX", "display_address": ["2475 South Highway 6", "Houston, TX 77077"]}, "phone": "+12815890791", "display_phone": "(281) 589-0791", "distance": 10331.158213754417}, {"id": "EOodGJAhKIIr7SCuybWLIw", "alias": "cocohodo-katy-7", "name": "Cocohodo", "image_url": "https://s3-media3.fl.yelpcdn.com/bphoto/ckGS-uZdztGvHxDDZbvA9A/o.jpg", "is_closed": false, "url": "https://www.yelp.com/biz/cocohodo-katy-7?adjust_creative=Q1Qdfk781tT6qWPSSx9wKg&utm_campaign=yelp_api_v3&utm_medium=api_v3_business_search&utm_source=Q1Qdfk781tT6qWPSSx9wKg", "review_count": 518, "categories": [{"alias": "coffee", "title": "Coffee & Tea"}, {"alias": "icecream", "title": "Ice Cream & Frozen Yogurt"}, {"alias": "creperies", "title": "Creperies"}], "rating": 4.5, "coordinates": {"latitude": 29.75528, "longitude": -95.75012}, "transactions": ["pickup", "delivery"], "price": "$$", "location": {"address1": "1645 Winding Hollow Dr", "address2": "Ste 201", "address3": "", "city": "Katy", "zip_code": "77450", "country": "US", "state": "TX", "display_address": ["1645 Winding Hollow Dr", "Ste 201", "Katy, TX 77450"]}, "phone": "+18323215849", "display_phone": "(832) 321-5849", "distance": 9036.283164715875}, {"id": "YNtI3nZGVMLOrxDVqyCkyw", "alias": "auntie-annes-pretzels-sugar-land", "name": "Auntie Anne's Pretzels", "image_url": "https://s3-media3.fl.yelpcdn.com/bphoto/nCwoP1vMz58AiKOhBiefWA/o.jpg", "is_closed": false, "url": "https://www.yelp.com/biz/auntie-annes-pretzels-sugar-land?adjust_creative=Q1Qdfk781tT6qWPSSx9wKg&utm_campaign=yelp_api_v3&utm_medium=api_v3_business_search&utm_source=Q1Qdfk781tT6qWPSSx9wKg", "review_count": 1, "categories": [{"alias": "pretzels", "title": "Pretzels"}, {"alias": "hotdogs", "title": "Fast Food"}, {"alias": "desserts", "title": "Desserts"}], "rating": 1.0, "coordinates": {"latitude": 29.591327, "longitude": -95.624874}, "transactions": ["pickup", "delivery"], "location": {"address1": "16535 Southwest Freeway", "address2": null, "address3": null, "city": "Sugar Land", "zip_code": "77479", "country": "US", "state": "TX", "display_address": ["16535 Southwest Freeway", "Sugar Land, TX 77479"]}, "phone": "+12812653188", "display_phone": "(281) 265-3188", "distance": 13661.767868220804}, {"id": "PgizzeoIh6XI3Z3YcaWzzw", "alias": "juana-de-avila-bakery-katy", "name": "Juana de Avila Bakery", "image_url": "https://s3-media4.fl.yelpcdn.com/bphoto/hPIngI-i815ofK8pO5U2hw/o.jpg", "is_closed": false, "url": "https://www.yelp.com/biz/juana-de-avila-bakery-katy?adjust_creative=Q1Qdfk781tT6qWPSSx9wKg&utm_campaign=yelp_api_v3&utm_medium=api_v3_business_search&utm_source=Q1Qdfk781tT6qWPSSx9wKg", "review_count": 10, "categories": [{"alias": "venezuelan", "title": "Venezuelan"}, {"alias": "pizza", "title": "Pizza"}, {"alias": "bakeries", "title": "Bakeries"}], "rating": 2.5, "coordinates": {"latitude": 29.75065, "longitude": -95.79775}, "transactions": ["pickup", "delivery"], "location": {"address1": "25600 Westheimer Pkwy", "address2": "", "address3": null, "city": "Katy", "zip_code": "77494", "country": "US", "state": "TX", "display_address": ["25600 Westheimer Pkwy", "Katy, TX 77494"]}, "phone": "+18322938630", "display_phone": "(832) 293-8630", "distance": 10734.962472783513}, {"id": "0mN5VY_IPEUQ1DY0cktk_g", "alias": "subway-richmond-147", "name": "Subway", "image_url": "https://s3-media2.fl.yelpcdn.com/bphoto/wFGScLQeO9BcraGrYodLtQ/o.jpg", "is_closed": false, "url": "https://www.yelp.com/biz/subway-richmond-147?adjust_creative=Q1Qdfk781tT6qWPSSx9wKg&utm_campaign=yelp_api_v3&utm_medium=api_v3_business_search&utm_source=Q1Qdfk781tT6qWPSSx9wKg", "review_count": 6, "categories": [{"alias": "sandwiches", "title": "Sandwiches"}, {"alias": "hotdogs", "title": "Fast Food"}], "rating": 3.5, "coordinates": {"latitude": 29.6304172595545, "longitude": -95.8111408323581}, "transactions": ["pickup", "delivery"], "price": "$", "location": {"address1": "4610 Fm 723 Space A", "address2": "Space A", "address3": "", "city": "Richmond", "zip_code": "77406", "country": "US", "state": "TX", "display_address": ["4610 Fm 723 Space A", "Space A", "Richmond, TX 77406"]}, "phone": "+12812328668", "display_phone": "(281) 232-8668", "distance": 9681.894362101937}, {"id": "sTg2Dc28VPTD2g5QVUr2Pw", "alias": "cafe-east-3-houston-2", "name": "Cafe East 3", "image_url": "https://s3-media1.fl.yelpcdn.com/bphoto/PNr6iDs3ZZgoFMk2Kypgig/o.jpg", "is_closed": false, "url": "https://www.yelp.com/biz/cafe-east-3-houston-2?adjust_creative=Q1Qdfk781tT6qWPSSx9wKg&utm_campaign=yelp_api_v3&utm_medium=api_v3_business_search&utm_source=Q1Qdfk781tT6qWPSSx9wKg", "review_count": 77, "categories": [{"alias": "chinese", "title": "Chinese"}, {"alias": "buffets", "title": "Buffets"}], "rating": 3.0, "coordinates": {"latitude": 29.70593, "longitude": -95.64235}, "transactions": ["delivery", "pickup"], "price": "$$", "location": {"address1": "6771 S Texas 6", "address2": "", "address3": "", "city": "Houston", "zip_code": "77083", "country": "US", "state": "TX", "display_address": ["6771 S Texas 6", "Houston, TX 77083"]}, "phone": "+18323513990", "display_phone": "(832) 351-3990", "distance": 8734.190714933415}, {"id": "WigLPcD6n40jcaqG85ZhnA", "alias": "taco-bell-richmond-33", "name": "Taco Bell", "image_url": "https://s3-media2.fl.yelpcdn.com/bphoto/qGZLHfWpKXgaWgwDC5lY8Q/o.jpg", "is_closed": false, "url": "https://www.yelp.com/biz/taco-bell-richmond-33?adjust_creative=Q1Qdfk781tT6qWPSSx9wKg&utm_campaign=yelp_api_v3&utm_medium=api_v3_business_search&utm_source=Q1Qdfk781tT6qWPSSx9wKg", "review_count": 26, "categories": [{"alias": "hotdogs", "title": "Fast Food"}, {"alias": "mexican", "title": "Mexican"}], "rating": 2.5, "coordinates": {"latitude": 29.692521, "longitude": -95.688624}, "transactions": ["delivery"], "price": "$", "location": {"address1": "8030 FM 1464", "address2": "", "address3": "", "city": "Richmond", "zip_code": "77407", "country": "US", "state": "TX", "display_address": ["8030 FM 1464", "Richmond, TX 77407"]}, "phone": "+12813026147", "display_phone": "(281) 302-6147", "distance": 4040.248938705219}, {"id": "PKhm-JsmuVE3GYqNC7Lk2Q", "alias": "taco-bell-sugar-land-8", "name": "Taco Bell", "image_url": "https://s3-media3.fl.yelpcdn.com/bphoto/949sdXvYXq0lNToROrvxeg/o.jpg", "is_closed": false, "url": "https://www.yelp.com/biz/taco-bell-sugar-land-8?adjust_creative=Q1Qdfk781tT6qWPSSx9wKg&utm_campaign=yelp_api_v3&utm_medium=api_v3_business_search&utm_source=Q1Qdfk781tT6qWPSSx9wKg", "review_count": 63, "categories": [{"alias": "mexican", "title": "Mexican"}, {"alias": "hotdogs", "title": "Fast Food"}], "rating": 1.5, "coordinates": {"latitude": 29.5877580465063, "longitude": -95.6475909054279}, "transactions": ["delivery", "pickup"], "price": "$", "location": {"address1": "13325 University Blvd.", "address2": "", "address3": "", "city": "Sugar Land", "zip_code": "77479", "country": "US", "state": "TX", "display_address": ["13325 University Blvd.", "Sugar Land, TX 77479"]}, "phone": "+12814914329", "display_phone": "(281) 491-4329", "distance": 12476.860722938873}, {"id": "VQ878K_lqchu-5km_DFTfg", "alias": "potbelly-sandwich-shop-sugar-land", "name": "Potbelly Sandwich Shop", "image_url": "https://s3-media3.fl.yelpcdn.com/bphoto/POE9oZmgfyEJHzR6MgIIZw/o.jpg", "is_closed": false, "url": "https://www.yelp.com/biz/potbelly-sandwich-shop-sugar-land?adjust_creative=Q1Qdfk781tT6qWPSSx9wKg&utm_campaign=yelp_api_v3&utm_medium=api_v3_business_search&utm_source=Q1Qdfk781tT6qWPSSx9wKg", "review_count": 115, "categories": [{"alias": "sandwiches", "title": "Sandwiches"}, {"alias": "hotdogs", "title": "Fast Food"}, {"alias": "salad", "title": "Salad"}], "rating": 3.0, "coordinates": {"latitude": 29.600041, "longitude": -95.625914}, "transactions": ["delivery", "pickup"], "price": "$", "location": {"address1": "1815 Hwy 6 S", "address2": "", "address3": "", "city": "Sugar Land", "zip_code": "77478", "country": "US", "state": "TX", "display_address": ["1815 Hwy 6 S", "Sugar Land, TX 77478"]}, "phone": "+12812772515", "display_phone": "(281) 277-2515", "distance": 12911.108491970344}, {"id": "jmB7SmdMC54Fe8V1JYAixQ", "alias": "great-harvest-bread-katy-3", "name": "Great Harvest Bread", "image_url": "https://s3-media1.fl.yelpcdn.com/bphoto/eUZ_j5j7xuHDPo3oN-gbuw/o.jpg", "is_closed": false, "url": "https://www.yelp.com/biz/great-harvest-bread-katy-3?adjust_creative=Q1Qdfk781tT6qWPSSx9wKg&utm_campaign=yelp_api_v3&utm_medium=api_v3_business_search&utm_source=Q1Qdfk781tT6qWPSSx9wKg", "review_count": 88, "categories": [{"alias": "bakeries", "title": "Bakeries"}, {"alias": "sandwiches", "title": "Sandwiches"}, {"alias": "cafes", "title": "Cafes"}], "rating": 4.0, "coordinates": {"latitude": 29.7626344, "longitude": -95.7157181}, "transactions": ["delivery"], "price": "$", "location": {"address1": "1623 S Fry Rd", "address2": null, "address3": "", "city": "Katy", "zip_code": "77450", "country": "US", "state": "TX", "display_address": ["1623 S Fry Rd", "Katy, TX 77450"]}, "phone": "+12815783097", "display_phone": "(281) 578-3097", "distance": 9630.060719850784}, {"id": "mq3nCSTA8XTq0trA-1LKJg", "alias": "fadis-mediterranean-grill-sugar-land-sugar-land", "name": "Fadi's Mediterranean Grill - Sugar Land", "image_url": "https://s3-media3.fl.yelpcdn.com/bphoto/1VRYZDeLg0LUdZASvM3tOg/o.jpg", "is_closed": false, "url": "https://www.yelp.com/biz/fadis-mediterranean-grill-sugar-land-sugar-land?adjust_creative=Q1Qdfk781tT6qWPSSx9wKg&utm_campaign=yelp_api_v3&utm_medium=api_v3_business_search&utm_source=Q1Qdfk781tT6qWPSSx9wKg", "review_count": 491, "categories": [{"alias": "mediterranean", "title": "Mediterranean"}, {"alias": "mideastern", "title": "Middle Eastern"}, {"alias": "cafeteria", "title": "Cafeteria"}], "rating": 4.0, "coordinates": {"latitude": 29.606905, "longitude": -95.642077}, "transactions": ["delivery", "pickup"], "price": "$$", "location": {"address1": "716 Hwy 6", "address2": "", "address3": "", "city": "Sugar Land", "zip_code": "77478", "country": "US", "state": "TX", "display_address": ["716 Hwy 6", "Sugar Land, TX 77478"]}, "phone": "+12813133144", "display_phone": "(281) 313-3144", "distance": 11245.74661588141}, {"id": "mT36n9EPKr8loxUk_o6ZNw", "alias": "subway-richmond-140", "name": "Subway", "image_url": "https://s3-media1.fl.yelpcdn.com/bphoto/mfEuL1LOT94-KlzGtPOFpw/o.jpg", "is_closed": false, "url": "https://www.yelp.com/biz/subway-richmond-140?adjust_creative=Q1Qdfk781tT6qWPSSx9wKg&utm_campaign=yelp_api_v3&utm_medium=api_v3_business_search&utm_source=Q1Qdfk781tT6qWPSSx9wKg", "review_count": 7, "categories": [{"alias": "sandwiches", "title": "Sandwiches"}, {"alias": "hotdogs", "title": "Fast Food"}], "rating": 2.5, "coordinates": {"latitude": 29.6208877, "longitude": -95.743225}, "transactions": ["delivery", "pickup"], "price": "$", "location": {"address1": "1846 Fm 359", "address2": "", "address3": "", "city": "Richmond", "zip_code": "77406", "country": "US", "state": "TX", "display_address": ["1846 Fm 359", "Richmond, TX 77406"]}, "phone": "+12813448886", "display_phone": "(281) 344-8886", "distance": 6419.335667012039}, {"id": "ILCKOEZi5dyeiW4MHOfs6g", "alias": "auntie-annes-sugar-land", "name": "Auntie Anne's", "image_url": "https://s3-media1.fl.yelpcdn.com/bphoto/hczuHr8QiLR9cu4DVGBhHw/o.jpg", "is_closed": false, "url": "https://www.yelp.com/biz/auntie-annes-sugar-land?adjust_creative=Q1Qdfk781tT6qWPSSx9wKg&utm_campaign=yelp_api_v3&utm_medium=api_v3_business_search&utm_source=Q1Qdfk781tT6qWPSSx9wKg", "review_count": 11, "categories": [{"alias": "pretzels", "title": "Pretzels"}], "rating": 3.5, "coordinates": {"latitude": 29.590972, "longitude": -95.625612}, "transactions": [], "price": "$", "location": {"address1": "16535 Southwest Fwy", "address2": "", "address3": "First Colony Mall", "city": "Sugar Land", "zip_code": "77479", "country": "US", "state": "TX", "display_address": ["16535 Southwest Fwy", "First Colony Mall", "Sugar Land, TX 77479"]}, "phone": "+12812653188", "display_phone": "(281) 265-3188", "distance": 13621.78289626869}, {"id": "0k_ypa8nD-aTddJOLGRkYA", "alias": "perrys-steakhouse-and-grille-katy-katy", "name": "Perry's Steakhouse & Grille - Katy", "image_url": "https://s3-media2.fl.yelpcdn.com/bphoto/D-TMvWjcYoGQ4WTm0bmmMw/o.jpg", "is_closed": false, "url": "https://www.yelp.com/biz/perrys-steakhouse-and-grille-katy-katy?adjust_creative=Q1Qdfk781tT6qWPSSx9wKg&utm_campaign=yelp_api_v3&utm_medium=api_v3_business_search&utm_source=Q1Qdfk781tT6qWPSSx9wKg", "review_count": 408, "categories": [{"alias": "steak", "title": "Steakhouses"}, {"alias": "seafood", "title": "Seafood"}, {"alias": "newamerican", "title": "American (New)"}], "rating": 3.5, "coordinates": {"latitude": 29.742015, "longitude": -95.774453}, "transactions": ["delivery", "pickup"], "price": "$$$", "location": {"address1": "23501 Cinco Ranch Blvd", "address2": "Ste Q100", "address3": "", "city": "Katy", "zip_code": "77494", "country": "US", "state": "TX", "display_address": ["23501 Cinco Ranch Blvd", "Ste Q100", "Katy, TX 77494"]}, "phone": "+12813473600", "display_phone": "(281) 347-3600", "distance": 8624.286222385306}, {"id": "hI_AKLOmPIhiyeYStglxLA", "alias": "taco-bell-katy-3", "name": "Taco Bell", "image_url": "https://s3-media3.fl.yelpcdn.com/bphoto/EqkFxpuDv0gJow7qCfGDGQ/o.jpg", "is_closed": false, "url": "https://www.yelp.com/biz/taco-bell-katy-3?adjust_creative=Q1Qdfk781tT6qWPSSx9wKg&utm_campaign=yelp_api_v3&utm_medium=api_v3_business_search&utm_source=Q1Qdfk781tT6qWPSSx9wKg", "review_count": 45, "categories": [{"alias": "mexican", "title": "Mexican"}, {"alias": "hotdogs", "title": "Fast Food"}], "rating": 2.5, "coordinates": {"latitude": 29.73328, "longitude": -95.77521}, "transactions": ["delivery", "pickup"], "price": "$", "location": {"address1": "23557 Westheimer Pkwy.", "address2": "", "address3": "", "city": "Katy", "zip_code": "77494", "country": "US", "state": "TX", "display_address": ["23557 Westheimer Pkwy.", "Katy, TX 77494"]}, "phone": "+12813913504", "display_phone": "(281) 391-3504", "distance": 7867.83262673448}, {"id": "O0MrDeO3bAPUb9Qzp5AKdg", "alias": "garden-caf\u00e9-sugar-land", "name": "Garden Caf\u00e9", "image_url": "https://s3-media2.fl.yelpcdn.com/bphoto/vvpmCUmi1mEYnb5maZThfg/o.jpg", "is_closed": false, "url": "https://www.yelp.com/biz/garden-caf%C3%A9-sugar-land?adjust_creative=Q1Qdfk781tT6qWPSSx9wKg&utm_campaign=yelp_api_v3&utm_medium=api_v3_business_search&utm_source=Q1Qdfk781tT6qWPSSx9wKg", "review_count": 3, "categories": [{"alias": "cafes", "title": "Cafes"}], "rating": 3.5, "coordinates": {"latitude": 29.588959, "longitude": -95.63112}, "transactions": [], "location": {"address1": "16655 Sw Fwy", "address2": "", "address3": "Methodist Sugar Land Hospital", "city": "Sugar Land", "zip_code": "77479", "country": "US", "state": "TX", "display_address": ["16655 Sw Fwy", "Methodist Sugar Land Hospital", "Sugar Land, TX 77479"]}, "phone": "", "display_phone": "", "distance": 13408.831716060511}, {"id": "23anOVwKZoTpzxhOvYKYVQ", "alias": "changs-chinese-restaurant-sugar-land-4", "name": "Chang's Chinese Restaurant", "image_url": "https://s3-media1.fl.yelpcdn.com/bphoto/OwexvBVRFI3-iXuov2N4CA/o.jpg", "is_closed": false, "url": "https://www.yelp.com/biz/changs-chinese-restaurant-sugar-land-4?adjust_creative=Q1Qdfk781tT6qWPSSx9wKg&utm_campaign=yelp_api_v3&utm_medium=api_v3_business_search&utm_source=Q1Qdfk781tT6qWPSSx9wKg", "review_count": 169, "categories": [{"alias": "chinese", "title": "Chinese"}, {"alias": "seafood", "title": "Seafood"}, {"alias": "noodles", "title": "Noodles"}], "rating": 3.5, "coordinates": {"latitude": 29.599032532493176, "longitude": -95.6271186390079}, "transactions": ["delivery", "pickup"], "price": "$", "location": {"address1": "16100 Kensington Dr", "address2": "Ste 200", "address3": "", "city": "Sugar Land", "zip_code": "77479", "country": "US", "state": "TX", "display_address": ["16100 Kensington Dr", "Ste 200", "Sugar Land, TX 77479"]}, "phone": "+12813250176", "display_phone": "(281) 325-0176", "distance": 12901.437452365999}, {"id": "SH7dS4GuLnoLcNpD153sQA", "alias": "aldi-sugar-land", "name": "ALDI", "image_url": "https://s3-media3.fl.yelpcdn.com/bphoto/f6UM3RUXUitkDgUk3RmUSg/o.jpg", "is_closed": false, "url": "https://www.yelp.com/biz/aldi-sugar-land?adjust_creative=Q1Qdfk781tT6qWPSSx9wKg&utm_campaign=yelp_api_v3&utm_medium=api_v3_business_search&utm_source=Q1Qdfk781tT6qWPSSx9wKg", "review_count": 42, "categories": [{"alias": "grocery", "title": "Grocery"}, {"alias": "markets", "title": "Fruits & Veggies"}, {"alias": "organic_stores", "title": "Organic Stores"}], "rating": 2.5, "coordinates": {"latitude": 29.664007610381272, "longitude": -95.644208}, "transactions": [], "price": "$", "location": {"address1": "10402 Hwy 6 S", "address2": "", "address3": "", "city": "Sugar Land", "zip_code": "77498", "country": "US", "state": "TX", "display_address": ["10402 Hwy 6 S", "Sugar Land, TX 77498"]}, "phone": "+18559552534", "display_phone": "(855) 955-2534", "distance": 8054.254566051202}, {"id": "kgER4_j4KadqjpBm3xe2qw", "alias": "taco-bell-houston-25", "name": "Taco Bell", "image_url": "https://s3-media1.fl.yelpcdn.com/bphoto/GGvLAoJUpxu97mHX15t1cA/o.jpg", "is_closed": false, "url": "https://www.yelp.com/biz/taco-bell-houston-25?adjust_creative=Q1Qdfk781tT6qWPSSx9wKg&utm_campaign=yelp_api_v3&utm_medium=api_v3_business_search&utm_source=Q1Qdfk781tT6qWPSSx9wKg", "review_count": 30, "categories": [{"alias": "mexican", "title": "Mexican"}, {"alias": "hotdogs", "title": "Fast Food"}], "rating": 2.0, "coordinates": {"latitude": 29.70139, "longitude": -95.64363}, "transactions": ["delivery"], "price": "$", "location": {"address1": "6907 Highway 6 South", "address2": "", "address3": "", "city": "Houston", "zip_code": "77083", "country": "US", "state": "TX", "display_address": ["6907 Highway 6 South", "Houston, TX 77083"]}, "phone": "+12818799882", "display_phone": "(281) 879-9882", "distance": 8442.372383735705}, {"id": "4alHJ_Fbq7EcQF252ZJIFA", "alias": "chilis-houston-20", "name": "Chili's", "image_url": "https://s3-media3.fl.yelpcdn.com/bphoto/BXIXh9iWk5DfjB6JOO-DrA/o.jpg", "is_closed": false, "url": "https://www.yelp.com/biz/chilis-houston-20?adjust_creative=Q1Qdfk781tT6qWPSSx9wKg&utm_campaign=yelp_api_v3&utm_medium=api_v3_business_search&utm_source=Q1Qdfk781tT6qWPSSx9wKg", "review_count": 101, "categories": [{"alias": "tradamerican", "title": "American (Traditional)"}, {"alias": "bars", "title": "Bars"}, {"alias": "tex-mex", "title": "Tex-Mex"}], "rating": 2.0, "coordinates": {"latitude": 29.74421883558761, "longitude": -95.64524845789484}, "transactions": ["pickup", "delivery"], "price": "$$", "location": {"address1": "2110 Hwy 6 S", "address2": "", "address3": "", "city": "Houston", "zip_code": "77077", "country": "US", "state": "TX", "display_address": ["2110 Hwy 6 S", "Houston, TX 77077"]}, "phone": "+12815960268", "display_phone": "(281) 596-0268", "distance": 10844.1539100359}, {"id": "f2gtSJktKcKW3uMg5fuyRg", "alias": "panda-express-sugar-land", "name": "Panda Express", "image_url": "https://s3-media2.fl.yelpcdn.com/bphoto/9EVPN76Em2vsW0kDe19icw/o.jpg", "is_closed": false, "url": "https://www.yelp.com/biz/panda-express-sugar-land?adjust_creative=Q1Qdfk781tT6qWPSSx9wKg&utm_campaign=yelp_api_v3&utm_medium=api_v3_business_search&utm_source=Q1Qdfk781tT6qWPSSx9wKg", "review_count": 47, "categories": [{"alias": "hotdogs", "title": "Fast Food"}, {"alias": "chinese", "title": "Chinese"}], "rating": 2.5, "coordinates": {"latitude": 29.603162, "longitude": -95.632707}, "transactions": ["delivery", "pickup"], "price": "$", "location": {"address1": "1401 State Hwy. 6", "address2": "SPACE #A", "address3": "", "city": "Sugar Land", "zip_code": "77478", "country": "US", "state": "TX", "display_address": ["1401 State Hwy. 6", "SPACE #A", "Sugar Land, TX 77478"]}, "phone": "+12812770856", "display_phone": "(281) 277-0856", "distance": 12196.806590309598}, {"id": "DRm8aPRc5hbR5-5HRLvldg", "alias": "burger-king-houston-50", "name": "Burger King", "image_url": "https://s3-media1.fl.yelpcdn.com/bphoto/HstZMhJO1jjXfOhIqL_gSA/o.jpg", "is_closed": false, "url": "https://www.yelp.com/biz/burger-king-houston-50?adjust_creative=Q1Qdfk781tT6qWPSSx9wKg&utm_campaign=yelp_api_v3&utm_medium=api_v3_business_search&utm_source=Q1Qdfk781tT6qWPSSx9wKg", "review_count": 32, "categories": [{"alias": "burgers", "title": "Burgers"}, {"alias": "hotdogs", "title": "Fast Food"}], "rating": 2.0, "coordinates": {"latitude": 29.735, "longitude": -95.64255}, "transactions": ["delivery"], "price": "$", "location": {"address1": "14501 Westheimer Hwy", "address2": "", "address3": "", "city": "Houston", "zip_code": "77077", "country": "US", "state": "TX", "display_address": ["14501 Westheimer Hwy", "Houston, TX 77077"]}, "phone": "+12815583304", "display_phone": "(281) 558-3304", "distance": 10362.710777033899}]